[{"text": "#ogiganteacordou #DilmaNAO #brasilnarua #foradilma #verasqueumfilhoteunaofogealuta #vamospararuas\u2026 http://t.co/AF0hcTxUBX", "created_at": "Tue Jun 18 17:02:09 +0000 2013", "coordinates": {"coordinates": [-8.61136747, 41.14668427]}, "entities": {"urls": [{"display_url": "instagram.com/p/atTgTbEu0S/"}]}, "id_str": "347036525172772864", "_id": {"$oid": "52c6d0f08ef20d397e42b516"}, "user": {"id_str": "1072354428", "name": "Carlos Roma"}}, {"text": "#VemPraRua #OBrasilAcordou #GritaSemTerMedoBrasil @ Col\u00e9gio NAP - Central de Vestibulares http://t.co/6fDpoEJ6Vx", "created_at": "Tue Jun 18 17:04:07 +0000 2013", "coordinates": {"coordinates": [-34.9102754, -8.02909392]}, "entities": {"urls": [{"display_url": "instagram.com/p/atTsU1vO3X/"}]}, "id_str": "347037016459984898", "_id": {"$oid": "52c6d0f18ef20d397e42ba4c"}, "user": {"id_str": "331625797", "name": "d\u00e9bora"}}, {"text": "O GIGANTE ACORDOU MANOOOOOOO \ud83d\ude0d\ud83d\ude0d\ud83d\ude0d\ud83d\ude0d\ud83d\udc4d\ud83d\udc4d\ud83d\udc4d\ud83d\udc4d\ud83d\udc4d\ud83d\udc4d\ud83d\udc4d\ud83d\udc4d\ud83d\udc4d\ud83d\udc4d #ogiganteacordou #obrasilacordou orgulho de ser\u2026 http://t.co/fYFwWRpluO", "created_at": "Tue Jun 18 17:08:13 +0000 2013", "coordinates": {"coordinates": [-46.57930227, -23.58187932]}, "entities": {"urls": [{"display_url": "instagram.com/p/atUdDiNQHY/"}]}, "id_str": "347038048531386368", "_id": {"$oid": "52c6d0f28ef20d397e42c538"}, "user": {"id_str": "195758430", "name": "ETCO's Gabis "}}, {"text": "C\u00e9u de baunilha no in\u00edcio do #protestosp @ Esta\u00e7\u00e3o Pinheiros (Metr\u00f4) http://t.co/sllugpPSqo", "created_at": "Tue Jun 18 09:12:28 +0000 2013", "coordinates": {"coordinates": [-46.70212984, -23.56737005]}, "entities": {"urls": [{"display_url": "instagram.com/p/asd9aYioJ_/"}]}, "id_str": "346918325168787456", "_id": {"$oid": "52c6d0f38ef20d397e42d6a0"}, "user": {"id_str": "34779125", "name": "Jefferson Nascimento"}}, {"text": "#ogiganteacondou #vemprarua #acordabrasil @ BRASIL http://t.co/3g0hopIMJt", "created_at": "Tue Jun 18 09:16:18 +0000 2013", "coordinates": {"coordinates": [-45.89620467, -23.24809718]}, "entities": {"urls": [{"display_url": "instagram.com/p/aseV5tFlUi/"}]}, "id_str": "346919287958683648", "_id": {"$oid": "52c6d0f38ef20d397e42d7df"}, "user": {"id_str": "288995201", "name": "LUTO TIA R\u00d4 E M\u00ca"}}, {"text": "Bdia. #vemprarua #oGIGANTEacordou #mudabrasil \ud83d\udc9a\ud83d\udc9b @ BRASIL http://t.co/src8dQqBS9", "created_at": "Tue Jun 18 09:36:05 +0000 2013", "coordinates": {"coordinates": [-47.11227606, -22.91652845]}, "entities": {"urls": [{"display_url": "instagram.com/p/asgoUcDR2W/"}]}, "id_str": "346924265356029952", "_id": {"$oid": "52c6d0f48ef20d397e42df90"}, "user": {"id_str": "60709839", "name": "Nathasha Hirata"}}, {"text": "Corre e #vemprarua voc\u00ea tamb\u00e9m! Cada estado com seu movimento, mas TODOS com um \u00fanico prop\u00f3sito:\u2026 http://t.co/5SVS4PiVTh", "created_at": "Tue Jun 18 09:57:09 +0000 2013", "coordinates": {"coordinates": [-38.50673214, -3.75347947]}, "entities": {"urls": [{"display_url": "instagram.com/p/asjKU-Swqu/"}]}, "id_str": "346929569552535554", "_id": {"$oid": "52c6d0f58ef20d397e42ea96"}, "user": {"id_str": "92342458", "name": "Samuel Bed\u00ea"}}, {"text": "#ogiganteacordou #muda #Brasil @ Jumeirah 1 http://t.co/uZaqT58JuO", "created_at": "Tue Jun 18 09:57:45 +0000 2013", "coordinates": {"coordinates": [55.26685018, 25.23293389]}, "entities": {"urls": [{"display_url": "instagram.com/p/asjEHYp3gG/"}]}, "id_str": "346929720555880449", "_id": {"$oid": "52c6d0f58ef20d397e42eae5"}, "user": {"id_str": "60608178", "name": "Jax"}}, {"text": "Absurdo! #ogiganteacordou #changebrasil @ Condom\u00ednio Villagio Di Roma http://t.co/wvNAecD1Ct", "created_at": "Tue Jun 18 10:00:31 +0000 2013", "coordinates": {"coordinates": [-35.21009488, -5.81936288]}, "entities": {"urls": [{"display_url": "instagram.com/p/asjjJ_FuJJ/"}]}, "id_str": "346930416764203008", "_id": {"$oid": "52c6d0f58ef20d397e42ec58"}, "user": {"id_str": "158775434", "name": "Luciana Lima"}}, {"text": "17.06, voltando do quinto ato #so #vemprarua @ Terminal Pinheiros http://t.co/blOfRNoJWe", "created_at": "Tue Jun 18 21:07:08 +0000 2013", "coordinates": {"coordinates": [-46.70195489, -23.56673851]}, "entities": {"urls": [{"display_url": "instagram.com/p/atvawzrzkb/"}]}, "id_str": "347098174428684289", "_id": {"$oid": "52c6d0f88ef20d397e42f96a"}, "user": {"id_str": "128988551", "name": "lana \u2654"}}, {"text": "#Movimente-se #Marab\u00e1 #vemprarua #nao\u00e9por20cents #\u00e9pelonossosdireitos #Ogigantedespertou\u2026 http://t.co/9NNPbLyZ1o", "created_at": "Tue Jun 18 21:10:46 +0000 2013", "coordinates": {"coordinates": [-49.085001, -5.34866732]}, "entities": {"urls": [{"display_url": "instagram.com/p/atwMpCApyk/"}]}, "id_str": "347099090397560832", "_id": {"$oid": "52c6d0f98ef20d397e4300a6"}, "user": {"id_str": "384843136", "name": "MilaCosta"}}, {"text": "#ModelsNight #Flixx #Insane #ChangeBrazil #VemPraRua #GiganteAcord\u00f4 #\u00d4Fil\u00f3 #Thailand #Models #Male\u2026 http://t.co/AhRLNr3siy", "created_at": "Tue Jun 18 21:15:50 +0000 2013", "coordinates": {"coordinates": [100.57504802, 13.75217297]}, "entities": {"urls": [{"display_url": "instagram.com/p/atwi3RkTz6/"}]}, "id_str": "347100363922497538", "_id": {"$oid": "52c6d0fa8ef20d397e430c28"}, "user": {"id_str": "33570378", "name": "rom\u00e9o cavalcante"}}, {"text": "#globovaitomarnocu #globomaquinadealienados #tocagandopracopa #changebrazil #oGIGANTEacordou\u2026 http://t.co/UHG7e3ojvf", "created_at": "Tue Jun 18 21:19:02 +0000 2013", "coordinates": {"coordinates": [2.35569692, 48.78010559]}, "entities": {"urls": [{"display_url": "instagram.com/p/atw6sSj4QI/"}]}, "id_str": "347101171091124224", "_id": {"$oid": "52c6d0fb8ef20d397e4315f7"}, "user": {"id_str": "128842583", "name": "DAVI MICHEL HRABAL"}}, {"text": "Amanh\u00e3 e o dia 19/06. #OGiganteAcordou #OrgulhoDeSerBrasileiro #VemPraRua @ rua Antonio Costa Mendes http://t.co/qTG7MhM1Ma", "created_at": "Tue Jun 18 21:26:01 +0000 2013", "coordinates": {"coordinates": [-38.58387429, -3.79056674]}, "entities": {"urls": [{"display_url": "instagram.com/p/atx0AAr7Bq/"}]}, "id_str": "347102926185066500", "_id": {"$oid": "52c6d0fc8ef20d397e432785"}, "user": {"id_str": "252825872", "name": "Airton Junior\u2122"}}, {"text": "Al\u00f4 Dilma ele n\u00e3o quer copa, ele quer sa\u00fade e educa\u00e7\u00e3o.  #vemprarua @ Pra\u00e7a da Rep\u00fablica http://t.co/wIjMiZjh9C", "created_at": "Tue Jun 18 21:27:08 +0000 2013", "coordinates": {"coordinates": [-8.41991895, 40.20959845]}, "entities": {"urls": [{"display_url": "instagram.com/p/atx9X_tRIk/"}]}, "id_str": "347103207132127232", "_id": {"$oid": "52c6d0fc8ef20d397e432abe"}, "user": {"id_str": "115804508", "name": "Livia Mega"}}, {"text": "#vemprarua #todosunidosporumbrasilmelhor #verasqueumfilhoteunaofogealuta #vergonhabrasil\u2026 http://t.co/BIOSiRB0oF", "created_at": "Tue Jun 18 21:29:43 +0000 2013", "coordinates": {"coordinates": [-46.63782761, -23.54748444]}, "entities": {"urls": [{"display_url": "instagram.com/p/atyTdop4ek/"}]}, "id_str": "347103857219891201", "_id": {"$oid": "52c6d0fc8ef20d397e4330fd"}, "user": {"id_str": "71595663", "name": "vemk Ferrari"}}, {"text": "#ogiganteacordou #vemprarua vemprarua #emprogresso #saidilma #revolu\u00e7aobrasil #naoeso20centavos @\u2026 http://t.co/SPeE7c4q8z", "created_at": "Tue Jun 18 21:36:24 +0000 2013", "coordinates": {"coordinates": [-38.55097685, -3.79463842]}, "entities": {"urls": [{"display_url": "instagram.com/p/atzCLKpTLw/"}]}, "id_str": "347105539488108544", "_id": {"$oid": "52c6d0fd8ef20d397e434163"}, "user": {"id_str": "317854399", "name": "Anny Barbosa"}}, {"text": "#Ogiganteacordou #AcordaBrasil #EstamosEmTodosOsLugares #QueremosDemocracia #Manifesta\u00e7\u00f5es #Direito\u2026 http://t.co/gyCNNDDHT6", "created_at": "Tue Jun 18 21:38:42 +0000 2013", "coordinates": {"coordinates": [-36.63995361, -9.4183712]}, "entities": {"urls": [{"display_url": "instagram.com/p/atzctdJJ9t/"}]}, "id_str": "347106121682653184", "_id": {"$oid": "52c6d0fd8ef20d397e43471d"}, "user": {"id_str": "197616405", "name": "Jordana Guimar\u00e3es"}}, {"text": "#obrasilacordou #vemprarua #brasil @ Avenida Paulista http://t.co/Atcx9Y32tk", "created_at": "Tue Jun 18 21:42:17 +0000 2013", "coordinates": {"coordinates": [-46.65973457, -23.55887552]}, "entities": {"urls": [{"display_url": "instagram.com/p/atzqFhRaxz/"}]}, "id_str": "347107020899491840", "_id": {"$oid": "52c6d0fe8ef20d397e4352f2"}, "user": {"id_str": "29012710", "name": "Leandro Pricoli"}}, {"text": "Gabriel tamb\u00e9m vai para a rua :) #OGiganteAcordou #VemPraRua @ Mans\u00e3o da Trupi do barulho! http://t.co/xOR5zfUVjm", "created_at": "Tue Jun 18 21:43:45 +0000 2013", "coordinates": {"coordinates": [-35.99203115, -8.27168094]}, "entities": {"urls": [{"display_url": "instagram.com/p/at0BN3hJPB/"}]}, "id_str": "347107392137359360", "_id": {"$oid": "52c6d0fe8ef20d397e43573a"}, "user": {"id_str": "268844567", "name": "\u2022 GUI GRAVA\u00c7\u00d5ES \u2022"}}, {"text": "Placas do nosso HAIR nunca foram t\u00e3o necess\u00e1rias e atuais! #revolutionnow #changebrazil\u2026 http://t.co/lF2GnsYmJJ", "created_at": "Tue Jun 18 21:46:38 +0000 2013", "coordinates": {"coordinates": [-46.66795365, -23.53140047]}, "entities": {"urls": [{"display_url": "instagram.com/p/atzpahQPni/"}]}, "id_str": "347108115575083008", "_id": {"$oid": "52c6d1018ef20d397e435fe9"}, "user": {"id_str": "69409090", "name": "Clara Camargo"}}, {"text": "Divas manifesting for Brazil! Lol #brazil #basta #brazilian #revolution #vemprarua\u2026 http://t.co/x61CYzFDwl", "created_at": "Tue Jun 18 21:58:14 +0000 2013", "coordinates": {"coordinates": [137.020507, 35.449846]}, "entities": {"urls": [{"display_url": "instagram.com/p/at1gw4MpVn/"}]}, "id_str": "347111036555505665", "_id": {"$oid": "52c6d1058ef20d397e438636"}, "user": {"id_str": "51048608", "name": "Cleiton Fujimura"}}, {"text": "#vemprarua #320nao #borapras\u00e9 #haddadfdp #renunciaalkmin @ Rua Caiubi http://t.co/HGQpXK3f8g", "created_at": "Tue Jun 18 21:58:15 +0000 2013", "coordinates": {"coordinates": [-46.67483693, -23.53820661]}, "entities": {"urls": [{"display_url": "instagram.com/p/at1kglQ-E1/"}]}, "id_str": "347111037792837634", "_id": {"$oid": "52c6d1058ef20d397e43863f"}, "user": {"id_str": "51537324", "name": "debora hadad "}}, {"text": "#vemprarua #ogiganteacordou #vamosbrasil @ Rep\u00fablica Federativa do Brasil http://t.co/3GhgSdea7X", "created_at": "Tue Jun 18 10:02:01 +0000 2013", "coordinates": {"coordinates": [-49.20971119, -25.4118704]}, "entities": {"urls": [{"display_url": "instagram.com/p/asjkmCETzM/"}]}, "id_str": "346930792968097792", "_id": {"$oid": "52c6d1068ef20d397e43917b"}, "user": {"id_str": "39587317", "name": "Ina Santos"}}, {"text": "Um bom dia pra voc\u00ea que realmente acordou! #acordabrasil #vemprarua #vemprajanela #ogiganteacordou\u2026 http://t.co/1hwbLwBZYT", "created_at": "Tue Jun 18 10:06:26 +0000 2013", "coordinates": {"coordinates": [-34.89621342, -8.05075203]}, "entities": {"urls": [{"display_url": "instagram.com/p/askDMMqesO/"}]}, "id_str": "346931903741452288", "_id": {"$oid": "52c6d1068ef20d397e4393e4"}, "user": {"id_str": "63830856", "name": "Mauricio Spinelli"}}, {"text": "Brasil mostra sua cara !! #vemprarua #goodmorning #me #instagood #nice #anapolis #bomdia @ Vieira's\u2026 http://t.co/fX0zpefUt4", "created_at": "Tue Jun 18 10:07:06 +0000 2013", "coordinates": {"coordinates": [-48.93539735, -16.29738467]}, "entities": {"urls": [{"display_url": "instagram.com/p/askNomSDHI/"}]}, "id_str": "346932074449604608", "_id": {"$oid": "52c6d1068ef20d397e439451"}, "user": {"id_str": "99329751", "name": "CARLOS VIEIRA"}}, {"text": "#ogiganteacordou #orepeloBrasil @ Madrid http://t.co/q3nL6bLQNN", "created_at": "Tue Jun 18 10:11:52 +0000 2013", "coordinates": {"coordinates": [-3.70355129, 40.41663279]}, "entities": {"urls": [{"display_url": "instagram.com/p/askolikXZs/"}]}, "id_str": "346933271713685504", "_id": {"$oid": "52c6d1068ef20d397e43971f"}, "user": {"id_str": "213666063", "name": "Fernanda Amaral"}}, {"text": "Pra voc\u00ea ver! E l\u00e1 os transportes s\u00e3o de qualidade. #changebrazil #ogiganteacordou #vamoprarua\u2026 http://t.co/9jXN8iC9dp", "created_at": "Tue Jun 18 10:16:58 +0000 2013", "coordinates": {"coordinates": [-35.94317783, -9.31097046]}, "entities": {"urls": [{"display_url": "instagram.com/p/aslQKZIrd2/"}]}, "id_str": "346934556298973184", "_id": {"$oid": "52c6d1068ef20d397e439a21"}, "user": {"id_str": "203530161", "name": "Daiane Oliveira"}}, {"text": "Brazil on the streets. #protestorj #protesto #brazil #riodejaneiro #fantastic #awesome #amazing\u2026 http://t.co/XsJL5791GU", "created_at": "Tue Jun 18 10:31:38 +0000 2013", "coordinates": {"coordinates": [-43.18490568, -22.95212952]}, "entities": {"urls": [{"display_url": "instagram.com/p/asmpXgEipM/"}]}, "id_str": "346938245675892736", "_id": {"$oid": "52c6d1078ef20d397e43a254"}, "user": {"id_str": "39422048", "name": "Gustavo BUna"}}, {"text": "Vale muito a pena o #vemprarua ! Mas o maior barulho, o maior protesto, a maior resposta tem que ser\u2026 http://t.co/9LkzOrnO5A", "created_at": "Tue Jun 18 10:38:55 +0000 2013", "coordinates": {"coordinates": [-48.46943134, -1.43838755]}, "entities": {"urls": [{"display_url": "instagram.com/p/asn8QbReWV/"}]}, "id_str": "346940078062436352", "_id": {"$oid": "52c6d1078ef20d397e43a720"}, "user": {"id_str": "35815787", "name": "Fabiano Lucas Castro"}}, {"text": "#VemPraRua voc\u00ea tamb\u00e9m nessa Quinta Feira \u00e0s 6h no Parque das Na\u00e7\u00f5es em Crici\u00fama!! @ Restaurante das\u2026 http://t.co/iESCN7pi9F", "created_at": "Tue Jun 18 10:40:55 +0000 2013", "coordinates": {"coordinates": [-49.35001461, -28.68129671]}, "entities": {"urls": [{"display_url": "instagram.com/p/asoKayk0Cd/"}]}, "id_str": "346940582406537216", "_id": {"$oid": "52c6d1078ef20d397e43a873"}, "user": {"id_str": "59201078", "name": "J\u00fanior Fagundes"}}, {"text": "\"\u00c9 que essa uni\u00e3o pode acabar em REVOLU\u00c7\u00c3O!!\" #Ogiganteacordou #Orgulhodeserbrasileiro @ Brasil http://t.co/mpuCDqqOs0", "created_at": "Tue Jun 18 10:43:53 +0000 2013", "coordinates": {"coordinates": [-43.3496845, -22.9275938]}, "entities": {"urls": [{"display_url": "instagram.com/p/asoQ8Fsuvn/"}]}, "id_str": "346941328648720384", "_id": {"$oid": "52c6d1078ef20d397e43aaad"}, "user": {"id_str": "82649934", "name": "Ingrid "}}, {"text": "#pol\u00edtica #protestorj #protestosp #portoalegre #macei\u00f3 #esp\u00edritoSanto #riodejaneiro #saopaulo\u2026 http://t.co/amhCptekyx", "created_at": "Tue Jun 18 10:52:32 +0000 2013", "coordinates": {"coordinates": [-43.32337402, -22.84424582]}, "entities": {"urls": [{"display_url": "instagram.com/p/aspfzYJ3lL/"}]}, "id_str": "346943507874869248", "_id": {"$oid": "52c6d1088ef20d397e43b0b0"}, "user": {"id_str": "28655593", "name": "Toni   [CRF]"}}, {"text": "#OGlobo #pol\u00edtica #protestorj #protestosp #portoalegre #macei\u00f3 #esp\u00edritoSanto #riodejaneiro #saopaulo\u2026 http://t.co/R5cak76YtF", "created_at": "Tue Jun 18 10:54:10 +0000 2013", "coordinates": {"coordinates": [-43.32337402, -22.84424582]}, "entities": {"urls": [{"display_url": "instagram.com/p/aspr9dJ3lY/"}]}, "id_str": "346943918836957184", "_id": {"$oid": "52c6d1088ef20d397e43b202"}, "user": {"id_str": "28655593", "name": "Toni   [CRF]"}}, {"text": "Que tal parar de desperdi\u00e7ar nossa arquitetura... A gente precisa mudar! #mudabrasil #oscarniemeyer\u2026 http://t.co/mYlUaBMzc1", "created_at": "Tue Jun 18 10:57:22 +0000 2013", "coordinates": {"coordinates": [-43.91215515, -19.8633213]}, "entities": {"urls": [{"display_url": "instagram.com/p/aspg9bEETu/"}]}, "id_str": "346944724298506240", "_id": {"$oid": "52c6d1088ef20d397e43b47f"}, "user": {"id_str": "331050489", "name": "Barbara Nobre"}}, {"text": "Ajudem a espalhar essa ideia!!! #ogiganteacordou #vemprarua #acordabrasil #porumbrasilmelhor #brasil\u2026 http://t.co/uDn6zHSWv3", "created_at": "Tue Jun 18 10:57:25 +0000 2013", "coordinates": {"coordinates": [-35.73038177, -9.59555116]}, "entities": {"urls": [{"display_url": "instagram.com/p/asp8xjNcY3/"}]}, "id_str": "346944733958000642", "_id": {"$oid": "52c6d1088ef20d397e43b487"}, "user": {"id_str": "45223900", "name": "Diego Baracho"}}, {"text": "Essa analumglhs \u00e9 uma comediante! #vemprarua @ Facebook http://t.co/LG7hOnm2jm", "created_at": "Tue Jun 18 01:02:14 +0000 2013", "coordinates": {"coordinates": [-43.2714913, -22.83234049]}, "entities": {"urls": [{"display_url": "instagram.com/p/arl8cLtmmF/"}]}, "id_str": "346794952119971844", "_id": {"$oid": "52c6d1098ef20d397e43c61a"}, "user": {"id_str": "45423881", "name": "Guilherme Brand\u00e3o"}}, {"text": "Caminh\u00e3o transportando substancia proibida #vinagre @ PRF Laranjeiras do Sul http://t.co/xlutwWWHoM", "created_at": "Tue Jun 18 01:03:46 +0000 2013", "coordinates": {"coordinates": [-52.39380706, -25.37693368]}, "entities": {"urls": [{"display_url": "instagram.com/p/arliAqSCsG/"}]}, "id_str": "346795340252463104", "_id": {"$oid": "52c6d10a8ef20d397e43d744"}, "user": {"id_str": "189467536", "name": "eliezergoulart"}}, {"text": "#changebrazil #ogiganteacordou #Ver\u00e1sQueUmFilhoTeuN\u00e3oFogeALuta @ Pal\u00e1cio dos Bandeirantes http://t.co/UMM5QBUowf", "created_at": "Tue Jun 18 01:04:52 +0000 2013", "coordinates": {"coordinates": [-46.71227932, -23.60115516]}, "entities": {"urls": [{"display_url": "instagram.com/p/arlrY-vIKT/"}]}, "id_str": "346795613276495872", "_id": {"$oid": "52c6d10b8ef20d397e43e30f"}, "user": {"id_str": "103355041", "name": "Daniel Maceira "}}, {"text": "#ver\u00e1squeumfilhoteun\u00e3ofogealuta #320nao #brasil #vemprarua #ogiganteacordou @ PROTESTO! http://t.co/VU2aI3qnEC", "created_at": "Tue Jun 18 01:06:39 +0000 2013", "coordinates": {"coordinates": [-46.7653649, -23.5046079]}, "entities": {"urls": [{"display_url": "instagram.com/p/armQcZtiVk/"}]}, "id_str": "346796063031705601", "_id": {"$oid": "52c6d10c8ef20d397e43f872"}, "user": {"id_str": "126739593", "name": "L"}}, {"text": "#oGIGANTEacordou #segundafeirabranca #VEMpraRUA @ Pra\u00e7a da Candel\u00e1ria http://t.co/wwYSgYqQxJ", "created_at": "Tue Jun 18 01:07:20 +0000 2013", "coordinates": {"coordinates": [-43.17857623, -22.90103365]}, "entities": {"urls": [{"display_url": "instagram.com/p/armfPsDiWz/"}]}, "id_str": "346796237124689921", "_id": {"$oid": "52c6d10d8ef20d397e440164"}, "user": {"id_str": "29726391", "name": "Lais Crouchoud"}}, {"text": "#vemprarua #vemprajanela #changebrazil #ogiganteacordou #acordabrasil #primaverabrasileira\u2026 http://t.co/G7clilULAz", "created_at": "Tue Jun 18 01:09:10 +0000 2013", "coordinates": {"coordinates": [-56.07417583, -15.57775503]}, "entities": {"urls": [{"display_url": "instagram.com/p/armg1JN5-M/"}]}, "id_str": "346796698246459393", "_id": {"$oid": "52c6d10e8ef20d397e441602"}, "user": {"id_str": "66748597", "name": "Marina Paula Signor"}}, {"text": "#MudaBrasil @ Av. Paulista http://t.co/OaDCcF4jm4", "created_at": "Tue Jun 18 01:13:22 +0000 2013", "coordinates": {"coordinates": [-46.65234334, -23.56603541]}, "entities": {"urls": [{"display_url": "instagram.com/p/arnBMqGmpU/"}]}, "id_str": "346797756221894656", "_id": {"$oid": "52c6d1118ef20d397e444417"}, "user": {"id_str": "67700470", "name": "Igor Peixoto Sor\u00f3"}}, {"text": "Para frente Brasil! #Protesto #Brazil #Brasil #Vemprarua #vemprajanela #Prafrentebrasil #Progresso\u2026 http://t.co/AbtnsAZB55", "created_at": "Tue Jun 18 01:14:34 +0000 2013", "coordinates": {"coordinates": [-34.9083329, -8.0515814]}, "entities": {"urls": [{"display_url": "instagram.com/p/arm3h3wgWt/"}]}, "id_str": "346798054797623297", "_id": {"$oid": "52c6d1128ef20d397e44516c"}, "user": {"id_str": "87300817", "name": "Lay Cavalcante"}}, {"text": "#vemprarua #mudabrasil #ogiganteacordou #nao\u00e9s\u00f320centavos @ Brasil em manifesta\u00e7\u00e3o http://t.co/TbgU52eLDE", "created_at": "Tue Jun 18 01:18:01 +0000 2013", "coordinates": {"coordinates": [-49.19868045, -16.7108437]}, "entities": {"urls": [{"display_url": "instagram.com/p/arnjW9Sd1M/"}]}, "id_str": "346798922615898112", "_id": {"$oid": "52c6d11f8ef20d397e447913"}, "user": {"id_str": "956553656", "name": "Isadora Franco"}}, {"text": "O dia que mais me deu orgulho de ser brasileiro!!!!!! #OGiganteAcordou #DEMOCRACIA @ Na Rua http://t.co/qNXpLlFdEb", "created_at": "Tue Jun 18 01:20:05 +0000 2013", "coordinates": {"coordinates": [-7.9621542, 37.0321833]}, "entities": {"urls": [{"display_url": "instagram.com/p/arn_IQt8QW/"}]}, "id_str": "346799443875622912", "_id": {"$oid": "52c6d1218ef20d397e449118"}, "user": {"id_str": "71134060", "name": "FaeL Franco"}}, {"text": "#ogiganteacordou #chegadecorrup\u00e7\u00e3o #vemprarua Quinta feira estarei junto com todos os gigantes!!! @\u2026 http://t.co/4K3qIfrpiJ", "created_at": "Tue Jun 18 01:22:42 +0000 2013", "coordinates": {"coordinates": [-46.6279612, -23.50715628]}, "entities": {"urls": [{"display_url": "instagram.com/p/aroMOKBuTF/"}]}, "id_str": "346800102322622465", "_id": {"$oid": "52c6d1228ef20d397e44ac1c"}, "user": {"id_str": "92524665", "name": "Marcelo Melo"}}, {"text": "#ogiganteacordou #semviolencia #mudabrasil #foracorrupcao #revolucao #avantebrasil @ Pojuca http://t.co/Hg8oZDLeIo", "created_at": "Tue Jun 18 01:23:37 +0000 2013", "coordinates": {"coordinates": [-38.32585313, -12.42005387]}, "entities": {"urls": [{"display_url": "instagram.com/p/aroNzmr3om/"}]}, "id_str": "346800332124323841", "_id": {"$oid": "52c6d1228ef20d397e44b60f"}, "user": {"id_str": "196403289", "name": "Si Aline \u2665"}}, {"text": "#OGiganteAcordou #ForaDilma #VERASQUEUMFILHOTEUN\u00c3OFOGEALUTA #BrasilEmReforma #Forap\u00e3o&amp;circo @ \ud83d\udc9b\ud83d\udc99\ud83d\udc9a http://t.co/8tR1lERUVk", "created_at": "Tue Jun 18 01:25:53 +0000 2013", "coordinates": {"coordinates": [-47.81329811, -15.88160872]}, "entities": {"urls": [{"display_url": "instagram.com/p/aroVwiGcui/"}]}, "id_str": "346800905326317568", "_id": {"$oid": "52c6d1248ef20d397e44cc92"}, "user": {"id_str": "1472652126", "name": "Vit\u00f3ria Donatoni"}}, {"text": "Anitta fez m\u00fasica nova? Hahahha ameeeei @anitta_oficial #changeworld #chupadilma #changebrazil\u2026 http://t.co/4aI08QR5i1", "created_at": "Tue Jun 18 01:28:13 +0000 2013", "coordinates": {"coordinates": [-42.75136081, -5.07147337]}, "entities": {"urls": [{"display_url": "instagram.com/p/arox-8GMkw/"}]}, "id_str": "346801492642119680", "_id": {"$oid": "52c6d1258ef20d397e44e1ba"}, "user": {"id_str": "188926150", "name": "\u00d7 N\u03b1th\u03b1li\u03b1 Torres"}}, {"text": "Lindo! Todo mundo junto faz a diferen\u00e7a! #vemprarua #ogiganteacordou #mudabrasil @ BRASIL http://t.co/5ZqxBPcnQN", "created_at": "Tue Jun 18 01:33:21 +0000 2013", "coordinates": {"coordinates": [-46.66570579, -23.55422534]}, "entities": {"urls": [{"display_url": "instagram.com/p/arpaj3PtOz/"}]}, "id_str": "346802783585972224", "_id": {"$oid": "52c6d1278ef20d397e450fd3"}, "user": {"id_str": "13718822", "name": "Shopaholic | Mari"}}, {"text": "#orgulhodeserbrasileiro #ogiganteacordou #arrepio #quelindo #jogarammentosnagera\u00e7\u00e3ococacola\u2026 http://t.co/sKvWK5FOe9", "created_at": "Tue Jun 18 01:36:14 +0000 2013", "coordinates": {"coordinates": [-49.2183522, -21.4717254]}, "entities": {"urls": [{"display_url": "instagram.com/p/arppY2w-Mo/"}]}, "id_str": "346803507153760257", "_id": {"$oid": "52c6d1288ef20d397e4528ce"}, "user": {"id_str": "237986258", "name": "Taty"}}, {"text": "#changebrazil #ogiganteacordou #vemprarua #ParteDaHistoria @ S\u00e3o Paulo http://t.co/1qYwFy6FU4", "created_at": "Tue Jun 18 01:37:36 +0000 2013", "coordinates": {"coordinates": [-46.63314343, -23.55069061]}, "entities": {"urls": [{"display_url": "instagram.com/p/arp0_tiOv0/"}]}, "id_str": "346803851598385152", "_id": {"$oid": "52c6d1298ef20d397e453479"}, "user": {"id_str": "48432841", "name": "Daniel Kamagusuku   "}}, {"text": "Sra Nair, 101 anos de muita.sabedoria! #VemPraRua #OGiganteAcordou #Ver\u00e1sQueUmFilhoTeuN\u00e3oFogeaLuta\u2026 http://t.co/KlRXX5yC8w", "created_at": "Tue Jun 18 01:40:48 +0000 2013", "coordinates": {"coordinates": [-35.21203995, -5.85574881]}, "entities": {"urls": [{"display_url": "instagram.com/p/arp9RzKTHd/"}]}, "id_str": "346804659396149249", "_id": {"$oid": "52c6d12a8ef20d397e454e18"}, "user": {"id_str": "74832838", "name": "Thalita Freire Cacho"}}, {"text": "Quinta Goi\u00e2nia vai parar, t\u00e1 na hora de demonstrar esse orgulho todo de ser BRASILEIRO! #vemprarua\u2026 http://t.co/dxsqSRghzF", "created_at": "Tue Jun 18 01:41:25 +0000 2013", "coordinates": {"coordinates": [-49.27107141, -16.71587226]}, "entities": {"urls": [{"display_url": "instagram.com/p/arqL4MkM_x/"}]}, "id_str": "346804815160025088", "_id": {"$oid": "52c6d12b8ef20d397e455304"}, "user": {"id_str": "137579723", "name": "Hugo Filardi"}}, {"text": "#vemprarua #ogiganteacordou vemprarua @ Brasil http://t.co/j0pwSRwKpX", "created_at": "Tue Jun 18 01:45:15 +0000 2013", "coordinates": {"coordinates": [-35.24232846, -5.72226101]}, "entities": {"urls": [{"display_url": "instagram.com/p/arqy6wODMp/"}]}, "id_str": "346805779438923776", "_id": {"$oid": "52c6d12c8ef20d397e457244"}, "user": {"id_str": "234520585", "name": "Nathalia Nunes"}}, {"text": "#VerasQueUmFilhoTeuNaoFogeALuta #OGiganteAcordou #OBrasilAcordou #VemPraRua @ Brasil http://t.co/SHvOMdq9t3", "created_at": "Tue Jun 18 01:45:49 +0000 2013", "coordinates": {"coordinates": [-35.25330401, -5.92134621]}, "entities": {"urls": [{"display_url": "instagram.com/p/arqoeSKHIn/"}]}, "id_str": "346805921604833280", "_id": {"$oid": "52c6d12c8ef20d397e45782a"}, "user": {"id_str": "95527792", "name": "Tyrone Damasceno"}}, {"text": "#vemprarua #brasilacordou #paulista #dilmabolada E veras que um filho teu no foge a luta! Brasil\u2026 http://t.co/xl1M26hoAV", "created_at": "Tue Jun 18 01:50:26 +0000 2013", "coordinates": {"coordinates": [-46.17300282, -23.54795759]}, "entities": {"urls": [{"display_url": "instagram.com/p/arrWgmQSZ3/"}]}, "id_str": "346807084379148288", "_id": {"$oid": "52c6d1338ef20d397e45a3f4"}, "user": {"id_str": "157067830", "name": "mari cassola"}}, {"text": "#mudabrasil @ Lauro de Freitas - BA http://t.co/EwPJJL4Aw8", "created_at": "Tue Jun 18 01:52:25 +0000 2013", "coordinates": {"coordinates": [-38.32546206, -12.89632184]}, "entities": {"urls": [{"display_url": "instagram.com/p/arrfi-r0jC/"}]}, "id_str": "346807583098687489", "_id": {"$oid": "52c6d1448ef20d397e45b5a9"}, "user": {"id_str": "246933736", "name": "Cauan Carvalho"}}, {"text": "#AcordaBrasil #Ver\u00e1sQueUmFilhoTeuN\u00e3oFogeALuta #OGiganteAcordou #OPovoAcordou #VemPraRua #MudaBrasil @\u2026 http://t.co/6tnkaevTFL", "created_at": "Tue Jun 18 01:53:00 +0000 2013", "coordinates": {"coordinates": [-43.6642638, -19.8845872]}, "entities": {"urls": [{"display_url": "instagram.com/p/arrwSIAWpK/"}]}, "id_str": "346807729714765826", "_id": {"$oid": "52c6d1468ef20d397e45bb4f"}, "user": {"id_str": "159594234", "name": "\u2206 ana"}}, {"text": "#OgiganteAcordou @ BRASIL http://t.co/67jUnemQLq", "created_at": "Tue Jun 18 01:53:53 +0000 2013", "coordinates": {"coordinates": [-51.1859879, -30.0146649]}, "entities": {"urls": [{"display_url": "instagram.com/p/arruZPF6sn/"}]}, "id_str": "346807950075129856", "_id": {"$oid": "52c6d1468ef20d397e45c2d6"}, "user": {"id_str": "314260331", "name": "Paulo Souza"}}, {"text": "Just posted a photo @ Ponte Oct\u00e1vio Frias de Oliveira (Ponte Estaiada) http://t.co/mOgQqvBSyf", "created_at": "Tue Jun 18 01:56:33 +0000 2013", "coordinates": {"coordinates": [-46.69869661, -23.61289334]}, "entities": {"urls": [{"display_url": "instagram.com/p/arsGOvE4cq/"}]}, "id_str": "346808623701299202", "_id": {"$oid": "52c6d1488ef20d397e45da25"}, "user": {"id_str": "24902362", "name": "ra\u0192augusto"}}, {"text": "#OGiganteAcordou #Brasil vinicioskessler vkessler @tartaroandre @ Porto Alegre http://t.co/HalTNp1bil", "created_at": "Tue Jun 18 01:57:20 +0000 2013", "coordinates": {"coordinates": [-51.19817734, -30.0273771]}, "entities": {"urls": [{"display_url": "instagram.com/p/arsIQxtbgV/"}]}, "id_str": "346808821064290304", "_id": {"$oid": "52c6d1498ef20d397e45e0b2"}, "user": {"id_str": "77761357", "name": "Gustavo Kr\u00fcger S."}}, {"text": "Im really proud! Eu to orgulhosa! #chupadilma #changebrasil #changebrazil  #anonymousbr #anonymousbr\u2026 http://t.co/y3Tda3IlvT", "created_at": "Tue Jun 18 02:00:50 +0000 2013", "coordinates": {"coordinates": [-79.38075694, 43.64010929]}, "entities": {"urls": [{"display_url": "instagram.com/p/arsUYiocNd/"}]}, "id_str": "346809700341403648", "_id": {"$oid": "52c6d14a8ef20d397e45fc7e"}, "user": {"id_str": "224432786", "name": "Naiara Pozzebon"}}, {"text": "EM PROGRESSO! #changebrazil @ Avenida Paulista http://t.co/uesJggAiMV", "created_at": "Tue Jun 18 13:01:13 +0000 2013", "coordinates": {"coordinates": [-46.65973457, -23.55887552]}, "entities": {"urls": [{"display_url": "instagram.com/p/as4K5Cnhia/"}]}, "id_str": "346975889675939840", "_id": {"$oid": "52c6d14a8ef20d397e45fdd4"}, "user": {"id_str": "49108106", "name": "Julia Sakoda"}}, {"text": "Eu acredito. Vem pra rua! \ud83d\ude4c\ud83d\uddfd\ud83d\ude4c  #vemprarua #semviolencia #vitoria #es #ogiganteacordou #quintatem\u2026 http://t.co/qSKdLAfYd5", "created_at": "Tue Jun 18 13:07:02 +0000 2013", "coordinates": {"coordinates": [-40.30137062, -20.29480401]}, "entities": {"urls": [{"display_url": "instagram.com/p/asxrtINicZ/"}]}, "id_str": "346977355971055616", "_id": {"$oid": "52c6d14b8ef20d397e460885"}, "user": {"id_str": "37273177", "name": "Fortunato Uliana"}}, {"text": "vamos repassar essa id\u00e9ia! #ogiganteacordou #mudabrasil #violenciageraviolencia #paz @ BRASIL EM\u2026 http://t.co/81PMxyiV4x", "created_at": "Tue Jun 18 13:09:33 +0000 2013", "coordinates": {"coordinates": [-44.08148961, -22.51362184]}, "entities": {"urls": [{"display_url": "instagram.com/p/as4CpJwsAZ/"}]}, "id_str": "346977986274287616", "_id": {"$oid": "52c6d14b8ef20d397e460d16"}, "user": {"id_str": "307608078", "name": "L\u00eddia Silva"}}, {"text": "#belemlivre #ogiganteacordou #vemprarua @ Bel\u00e9m http://t.co/7I7Hg04Jw1", "created_at": "Tue Jun 18 13:10:45 +0000 2013", "coordinates": {"coordinates": [-49.1205468, -5.362067]}, "entities": {"urls": [{"display_url": "instagram.com/p/as5LWyxSlG/"}]}, "id_str": "346978288402571266", "_id": {"$oid": "52c6d14c8ef20d397e460f93"}, "user": {"id_str": "207352287", "name": "Camile mota"}}, {"text": "Os jovens do Brasil tem levado a s\u00e9rio SIM. #mudaBrasil @ Manifesta\u00e7\u00e3o #Bel\u00e9mLivre http://t.co/lOD458LIzw", "created_at": "Tue Jun 18 13:19:42 +0000 2013", "coordinates": {"coordinates": [-48.46456633, -1.44560224]}, "entities": {"urls": [{"display_url": "instagram.com/p/as6MtMuWmV/"}]}, "id_str": "346980541020651520", "_id": {"$oid": "52c6d14d8ef20d397e4623df"}, "user": {"id_str": "172448919", "name": "Isabela Senna"}}, {"text": "[in]diretas meu bem! #gentequerepresenta #vemprarua #ogiganteacordou #protestorj #riodejaneiro\u2026 http://t.co/tIH8ihZBSU", "created_at": "Tue Jun 18 13:23:54 +0000 2013", "coordinates": {"coordinates": [-43.209529, -22.910477]}, "entities": {"urls": [{"display_url": "instagram.com/p/as5xnTJ2Vn/"}]}, "id_str": "346981600082395136", "_id": {"$oid": "52c6d14d8ef20d397e462c52"}, "user": {"id_str": "30433867", "name": "Vin\u00edcius Kircove"}}, {"text": "Repassem !! #acordabrasil #mudabrasil @ Brasil http://t.co/sFDCIeqzRy", "created_at": "Tue Jun 18 13:23:56 +0000 2013", "coordinates": {"coordinates": [-47.33940663, -22.75583432]}, "entities": {"urls": [{"display_url": "instagram.com/p/as6rv8vD8U/"}]}, "id_str": "346981608471007232", "_id": {"$oid": "52c6d14d8ef20d397e462c64"}, "user": {"id_str": "471951637", "name": "Juliana Iglesias"}}, {"text": "Bom dia!!! #vemprarua #mudabrasil #ogiganteacordou @ Centro de Ensino M\u00e9dio 01 de Brazl\u00e2ndia http://t.co/BmscNDWFkU", "created_at": "Tue Jun 18 13:29:58 +0000 2013", "coordinates": {"coordinates": [-48.19573402, -15.68807961]}, "entities": {"urls": [{"display_url": "instagram.com/p/as7dBlibSV/"}]}, "id_str": "346983124976140288", "_id": {"$oid": "52c6d14e8ef20d397e4639db"}, "user": {"id_str": "114825202", "name": "Dayane Boaventura"}}, {"text": "S\u00e1bias palavras de J\u00f4 Soares!!! #oBrasilAcordou #oGIGANTEacordou #vamosBrasil @ Est\u00fadio R\u00e1dio Livre FM http://t.co/yHdhQCFBSq", "created_at": "Tue Jun 18 13:35:31 +0000 2013", "coordinates": {"coordinates": [-47.81479565, -23.34210642]}, "entities": {"urls": [{"display_url": "instagram.com/p/as7u45FB4E/"}]}, "id_str": "346984521889116162", "_id": {"$oid": "52c6d14f8ef20d397e4644cd"}, "user": {"id_str": "106551953", "name": "DJ Stuka - PGraziano"}}, {"text": "#VerasQueUmFilhoTeuN\u00e3oFogeALuta#Vemprarua#Brasil#2013#HinoNacional#P\u00e1tria\u2026 http://t.co/JjqHHckTw6", "created_at": "Tue Jun 18 13:36:22 +0000 2013", "coordinates": {"coordinates": [-51.1555915, -29.79282924]}, "entities": {"urls": [{"display_url": "instagram.com/p/as78EgnzNM/"}]}, "id_str": "346984737782501376", "_id": {"$oid": "52c6d14f8ef20d397e464687"}, "user": {"id_str": "595787034", "name": "Kimberly Gress"}}, {"text": "\"Ver\u00e1s que um filho teu n\u00e3o foge \u00e0 luta\" #vemprarua #protestasp @ Avenida Brigadeiro Faria Lima http://t.co/uj1nbbGy1T", "created_at": "Tue Jun 18 13:38:28 +0000 2013", "coordinates": {"coordinates": [-46.68695927, -23.5771643]}, "entities": {"urls": [{"display_url": "instagram.com/p/as8N7YEu3A/"}]}, "id_str": "346985263911800832", "_id": {"$oid": "52c6d14f8ef20d397e464a79"}, "user": {"id_str": "99522953", "name": "Rodrigo Barros"}}, {"text": "NON DVCOR DVCO! ESSA \u00c9 A HORA! A CIDADE \u00c9 NOSSA! #passelivre #sp #vemprarua @ S\u00e3o Paulo http://t.co/Ckw4y9ngDB", "created_at": "Tue Jun 18 13:38:53 +0000 2013", "coordinates": {"coordinates": [-46.63314343, -23.55069061]}, "entities": {"urls": [{"display_url": "instagram.com/p/as8SaKEGbl/"}]}, "id_str": "346985369713115136", "_id": {"$oid": "52c6d14f8ef20d397e464b59"}, "user": {"id_str": "15753411", "name": "CarinaWonder"}}, {"text": "Acabou de publicar uma foto @ Protestos no Brasil http://t.co/ndENvcXK3t", "created_at": "Tue Jun 18 13:41:53 +0000 2013", "coordinates": {"coordinates": [-47.901104, -15.7548193]}, "entities": {"urls": [{"display_url": "instagram.com/p/as8zWNiK8A/"}]}, "id_str": "346986124893368321", "_id": {"$oid": "52c6d14f8ef20d397e4650f7"}, "user": {"id_str": "232376749", "name": "Cleysson Lima"}}, {"text": "#mudabrasil @ Simone Cereja Beauty Store http://t.co/vYLdifHECC", "created_at": "Tue Jun 18 13:42:15 +0000 2013", "coordinates": {"coordinates": [-51.39104094, -22.10965645]}, "entities": {"urls": [{"display_url": "instagram.com/p/as84VYhigH/"}]}, "id_str": "346986216807333889", "_id": {"$oid": "52c6d14f8ef20d397e4651bf"}, "user": {"id_str": "65226699", "name": "Simone Cereja"}}, {"text": "Vamos ver se o Brasil acordou mesmo!!! #sp #brasil #br #ogiganteacordou #vejasp #vemprarua #instaday\u2026 http://t.co/8S6OVMxUCF", "created_at": "Tue Jun 18 13:43:53 +0000 2013", "coordinates": {"coordinates": [-46.65973457, -23.55887552]}, "entities": {"urls": [{"display_url": "instagram.com/p/as85hKxgGJ/"}]}, "id_str": "346986628318892032", "_id": {"$oid": "52c6d14f8ef20d397e46550e"}, "user": {"id_str": "123289394", "name": "regis barradas"}}, {"text": "#MudaBrasil @ Anonymous http://t.co/GDgtriq2ia", "created_at": "Tue Jun 18 13:45:38 +0000 2013", "coordinates": {"coordinates": [-40.8473648, -2.9019426]}, "entities": {"urls": [{"display_url": "instagram.com/p/as9I3ajgJ_/"}]}, "id_str": "346987068523700224", "_id": {"$oid": "52c6d1508ef20d397e4658da"}, "user": {"id_str": "158709411", "name": "kleber \u2206"}}, {"text": "Repassem ! Compartilhem! Divulguem! #chargebrasil #ogiganteacordo #vemprarua #semviolencia #agoravai\u2026 http://t.co/VteMsRYAjS", "created_at": "Tue Jun 18 13:48:37 +0000 2013", "coordinates": {"coordinates": [-43.209529, -22.910477]}, "entities": {"urls": [{"display_url": "instagram.com/p/as9J7ojETD/"}]}, "id_str": "346987820302356480", "_id": {"$oid": "52c6d1508ef20d397e465f01"}, "user": {"id_str": "135961583", "name": "Bruna vibe"}}, {"text": "#mudabrasil @ Minist\u00e9rio da Agricultura, Pecu\u00e1ria e Abastecimento (MAPA) http://t.co/yCqBoh4uy6", "created_at": "Tue Jun 18 13:50:29 +0000 2013", "coordinates": {"coordinates": [-47.87089705, -15.79959371]}, "entities": {"urls": [{"display_url": "instagram.com/p/as90isxxwK/"}]}, "id_str": "346988290827747328", "_id": {"$oid": "52c6d1508ef20d397e4662df"}, "user": {"id_str": "182590638", "name": "Mayara Fazio"}}, {"text": "espero... ! \ud83d\ude14\ud83d\ude4f\ud83d\udc9a\ud83d\udc9b\ud83c\udf8c #vemprarua #ogiganteacordou #verasqueumfilhoteunaofogealuta #orgulhonacional @ Vem\u2026 http://t.co/Z4Bq37AB9s", "created_at": "Tue Jun 18 13:51:51 +0000 2013", "coordinates": {"coordinates": [-43.273989, -22.905966]}, "entities": {"urls": [{"display_url": "instagram.com/p/as9l13Ba17/"}]}, "id_str": "346988634290929665", "_id": {"$oid": "52c6d1508ef20d397e4665b1"}, "user": {"id_str": "212819517", "name": "rhayanne costa"}}, {"text": "#vemprarua s\u00f3 digo isto. @ Estudio 500 http://t.co/zxJnrhCz2p", "created_at": "Tue Jun 18 13:51:52 +0000 2013", "coordinates": {"coordinates": [-48.32263, -10.189987]}, "entities": {"urls": [{"display_url": "instagram.com/p/as9_pNKrGY/"}]}, "id_str": "346988637247922177", "_id": {"$oid": "52c6d1508ef20d397e4665b9"}, "user": {"id_str": "53115208", "name": "Lucas Terra"}}, {"text": "#ogiganteacordou #changebrazil #mudabrasil @ Centro Universit\u00e1rio Ritter dos Reis (UniRitter) http://t.co/xz9jtuXyB5", "created_at": "Tue Jun 18 13:55:20 +0000 2013", "coordinates": {"coordinates": [-51.16803381, -29.94553402]}, "entities": {"urls": [{"display_url": "instagram.com/p/as-SQGNyRW/"}]}, "id_str": "346989510053199872", "_id": {"$oid": "52c6d1518ef20d397e466cca"}, "user": {"id_str": "75457527", "name": "Bruno Marques"}}, {"text": "Repasse esta id\u00e9ia. #mudabrasil #giganteacordou @ Formosa http://t.co/2iSQVOvFue", "created_at": "Tue Jun 18 13:55:43 +0000 2013", "coordinates": {"coordinates": [-47.2853692, -14.7160445]}, "entities": {"urls": [{"display_url": "instagram.com/p/as-VMYP0_B/"}]}, "id_str": "346989605461037056", "_id": {"$oid": "52c6d1518ef20d397e466d90"}, "user": {"id_str": "610327345", "name": "lorena alves "}}, {"text": "Pec-37/ Pec da Impunidade #mudabrasil  #foralourivalmendes #ogiganteacordou #pec37 @ Brasil http://t.co/BMr2wSDI6r", "created_at": "Tue Jun 18 13:55:51 +0000 2013", "coordinates": {"coordinates": [-46.54033546, -23.62508084]}, "entities": {"urls": [{"display_url": "instagram.com/p/as-VTLRuYK/"}]}, "id_str": "346989638717685761", "_id": {"$oid": "52c6d1518ef20d397e466dd3"}, "user": {"id_str": "278322057", "name": "St\u00e9phanie Lopes"}}, {"text": "Agora vai! O gigante acordou! #vemprarua #ogiganteacordou #acordabrasil #vempraruarj vemprarua @ Vem\u2026 http://t.co/vPsa2jK6TG", "created_at": "Mon Jun 17 23:05:30 +0000 2013", "coordinates": {"coordinates": [-43.78724791, -22.87174528]}, "entities": {"urls": [{"display_url": "instagram.com/p/arYLoPNWd3/"}]}, "id_str": "346765573981626369", "_id": {"$oid": "52c6d1578ef20d397e46ab7f"}, "user": {"id_str": "565528572", "name": "Ju do Victor"}}, {"text": "Agora eles est\u00e3o colocando na m\u00eddia ! Aff Jornalismo podre #protestobrasil @ Brasil http://t.co/xDSdLpWlns", "created_at": "Mon Jun 17 23:06:29 +0000 2013", "coordinates": {"coordinates": [-40.27266667, -20.25766667]}, "entities": {"urls": [{"display_url": "instagram.com/p/arYl_Mi4HR/"}]}, "id_str": "346765823328808960", "_id": {"$oid": "52c6d1578ef20d397e46b6a2"}, "user": {"id_str": "207320517", "name": "Yuri Reis - Oficial "}}, {"text": "#vemprarua #verasqueumfilhoteunaofogealuta #abaixoredeglobopovonaoebobo #acordabrasil #obrasilacordou\u2026 http://t.co/p1E5AR0orv", "created_at": "Mon Jun 17 23:06:41 +0000 2013", "coordinates": {"coordinates": [-46.6881159, -23.5769823]}, "entities": {"urls": [{"display_url": "instagram.com/p/arYby9pG8D/"}]}, "id_str": "346765875501740032", "_id": {"$oid": "52c6d1588ef20d397e46b8fd"}, "user": {"id_str": "198035807", "name": "#GustavoFerraz"}}, {"text": "#vemprarua @ Londrina http://t.co/ozn9Cpg7dd", "created_at": "Mon Jun 17 23:08:23 +0000 2013", "coordinates": {"coordinates": [-51.15955353, -23.31258213]}, "entities": {"urls": [{"display_url": "instagram.com/p/arY3t_PMtL/"}]}, "id_str": "346766303081668608", "_id": {"$oid": "52c6d1598ef20d397e46cc34"}, "user": {"id_str": "1075304648", "name": "D\u00e9bora Ponce"}}, {"text": "Juca Varella/Folhapress #SP17J #protestasp @ Brigadeiro Faria Lima http://t.co/hu85Boi8Kd", "created_at": "Mon Jun 17 23:10:03 +0000 2013", "coordinates": {"coordinates": [-46.61662454, -23.61417724]}, "entities": {"urls": [{"display_url": "instagram.com/p/arY5CNBHfr/"}]}, "id_str": "346766721606090752", "_id": {"$oid": "52c6d15a8ef20d397e46e259"}, "user": {"id_str": "15232699", "name": "Jhomar Nando"}}, {"text": "ISSO \u00c9 HIST\u00d3RIA!! Sensacional!! \"Uma na\u00e7\u00e3o muda, n\u00e3o muda!\" #vemprarua #ogiganteacordou #changebrazil\u2026 http://t.co/ItPk61eNBr", "created_at": "Mon Jun 17 23:13:11 +0000 2013", "coordinates": {"coordinates": [-46.68695927, -23.5771643]}, "entities": {"urls": [{"display_url": "instagram.com/p/arZPwSTBd6/"}]}, "id_str": "346767508260413440", "_id": {"$oid": "52c6d15b8ef20d397e470357"}, "user": {"id_str": "52978220", "name": "Lucas Flausino"}}, {"text": "#vemprarua #verasqueumfilhoteunaofogealuta #abaixoredeglobopovonaoebobo #acordabrasil #obrasilacordou\u2026 http://t.co/WGGFywFuR5", "created_at": "Mon Jun 17 23:16:05 +0000 2013", "coordinates": {"coordinates": [-46.6881159, -23.5769823]}, "entities": {"urls": [{"display_url": "instagram.com/p/arZyhYpG-R/"}]}, "id_str": "346768238203510784", "_id": {"$oid": "52c6d15d8ef20d397e47221e"}, "user": {"id_str": "198035807", "name": "#GustavoFerraz"}}, {"text": "#ogiganteacordou #umfilhoteunaofogealuta #RiodeJaneiro #paraaroubalheiraouparamosoBrasil @ Em alguma\u2026 http://t.co/J0Etgzft9j", "created_at": "Mon Jun 17 23:16:44 +0000 2013", "coordinates": {"coordinates": [-43.45279771, -23.02048556]}, "entities": {"urls": [{"display_url": "instagram.com/p/arZskkG8q-/"}]}, "id_str": "346768404662861824", "_id": {"$oid": "52c6d15d8ef20d397e47295a"}, "user": {"id_str": "410261389", "name": "Filho da Renata"}}, {"text": "#ogiganteacordou #acordabrasil #Brasil #CHEGA #TODOSJUNTOS \ud83d\udc4a\ud83d\udc4a\ud83d\udc4a\ud83d\udc4f @ Bras\u00edlia/DF http://t.co/Xdh2VDLzIT", "created_at": "Mon Jun 17 23:17:02 +0000 2013", "coordinates": {"coordinates": [-48.04370276, -15.84194311]}, "entities": {"urls": [{"display_url": "instagram.com/p/arZr9XCfMv/"}]}, "id_str": "346768476632920064", "_id": {"$oid": "52c6d15e8ef20d397e472c5f"}, "user": {"id_str": "292640030", "name": "Paulo C\u00e9sar"}}, {"text": "#vemprarua n\u00e3o que t\u00e1 um frio do caralho aqui! @ Pra\u00e7a do Capivari http://t.co/ifEzoWrv3U", "created_at": "Mon Jun 17 23:18:41 +0000 2013", "coordinates": {"coordinates": [-45.56667566, -22.71846784]}, "entities": {"urls": [{"display_url": "instagram.com/p/araDlWyDJI/"}]}, "id_str": "346768892972134400", "_id": {"$oid": "52c6d15f8ef20d397e473ea1"}, "user": {"id_str": "49201453", "name": "Maria Tereza Falc\u00e3o"}}, {"text": "....E pode ser que no final a gente diga: \"R$ 0,20 centavos mudou o pa\u00eds!\" #mudabrasil #doiemtodosn\u00f3s\u2026 http://t.co/af2nXnOAgX", "created_at": "Mon Jun 17 23:18:58 +0000 2013", "coordinates": {"coordinates": [-41.9346014, -18.8463617]}, "entities": {"urls": [{"display_url": "instagram.com/p/arZOmWDafS/"}]}, "id_str": "346768963834900480", "_id": {"$oid": "52c6d15f8ef20d397e4741cf"}, "user": {"id_str": "58291018", "name": "acsa fernandes"}}, {"text": "#protestosp #vemprarua #porumbrasilmelhor @ Avenida Brigadeiro Faria Lima http://t.co/w4O6l5Fgf2", "created_at": "Mon Jun 17 23:25:34 +0000 2013", "coordinates": {"coordinates": [-46.68695927, -23.5771643]}, "entities": {"urls": [{"display_url": "instagram.com/p/arayU-zOC_/"}]}, "id_str": "346770626700267520", "_id": {"$oid": "52c6d1648ef20d397e477255"}, "user": {"id_str": "47822017", "name": "Daniel Morales"}}, {"text": "#SemLegenda! #VemPraRua #OGiganteAcordou #Brasil @ Brasil http://t.co/rKM3ZVpCnu", "created_at": "Mon Jun 17 23:30:58 +0000 2013", "coordinates": {"coordinates": [-45.9139133, -21.6881526]}, "entities": {"urls": [{"display_url": "instagram.com/p/arZfrHkGOX/"}]}, "id_str": "346771985738649600", "_id": {"$oid": "52c6d1698ef20d397e47adc3"}, "user": {"id_str": "75431291", "name": "Eduardo Rodriguez"}}, {"text": "Brazilians protesting in LA. #changebrazil #wakeupbrazil #keepcalmmyass #fucktheworldcup #brazilunited\u2026 http://t.co/TwmXt2pxdz", "created_at": "Mon Jun 17 23:31:19 +0000 2013", "coordinates": {"coordinates": [-118.41200022, 34.07952611]}, "entities": {"urls": [{"display_url": "instagram.com/p/arbQANFKkO/"}]}, "id_str": "346772074519482368", "_id": {"$oid": "52c6d1698ef20d397e47b25b"}, "user": {"id_str": "58577670", "name": "Anna Herrera"}}, {"text": "#ogiganteacordo #vemprarua @ vem pra rua http://t.co/vgBnDdwdbf", "created_at": "Mon Jun 17 23:33:09 +0000 2013", "coordinates": {"coordinates": [-60.06636894, -3.0946748]}, "entities": {"urls": [{"display_url": "instagram.com/p/arboTvFqLi/"}]}, "id_str": "346772533720260608", "_id": {"$oid": "52c6d16a8ef20d397e47c9e2"}, "user": {"id_str": "517050506", "name": "Renato Antonio"}}, {"text": "Simples assim #vamoprarua #vamopraruaexigirnossosdireitos #naoepelosvintecentavos #ogiganteacordou\u2026 http://t.co/XZr4W71S2N", "created_at": "Mon Jun 17 23:35:07 +0000 2013", "coordinates": {"coordinates": [-48.63182304, -26.99524488]}, "entities": {"urls": [{"display_url": "instagram.com/p/arb1qWmsaW/"}]}, "id_str": "346773026890731522", "_id": {"$oid": "52c6d16c8ef20d397e47e40b"}, "user": {"id_str": "121204761", "name": "Luciana Altmann"}}, {"text": "\u00c9 de arrepiar!! \ud83d\udc4f\ud83d\udc4f\ud83d\udc4f sem palavras...\ud83d\udc4a\ud83d\udc4a #vemprarua #ogiganteacordou #doiemtodosnos #brasil #acordabrasil\u2026 http://t.co/jpjEslZkB7", "created_at": "Mon Jun 17 23:35:13 +0000 2013", "coordinates": {"coordinates": [-46.77683333, -23.68216667]}, "entities": {"urls": [{"display_url": "instagram.com/p/arbpZTmZfH/"}]}, "id_str": "346773055764312065", "_id": {"$oid": "52c6d16c8ef20d397e47e5a7"}, "user": {"id_str": "251741872", "name": "Bruno Pereira"}}, {"text": "#mudabrasil #orgulhodeestaraqui #soubrasileiro #mostracara #vempraruavem #porumbrasilmelhor \u2764\ud83d\udc4a\ud83d\udc4a\ud83d\udc4a\u2764 @\u2026 http://t.co/QqthBgcvq2", "created_at": "Mon Jun 17 23:35:45 +0000 2013", "coordinates": {"coordinates": [-46.67170471, -23.58965441]}, "entities": {"urls": [{"display_url": "instagram.com/p/arbzCpj6mW/"}]}, "id_str": "346773188245602306", "_id": {"$oid": "52c6d16c8ef20d397e47ed3c"}, "user": {"id_str": "68998571", "name": "Gelbh Costa"}}, {"text": "#vemprarua #mudabrasil #vcsmerepresentam @ Na Minha Humilde Resid\u00eancia http://t.co/yqCofp3bvy", "created_at": "Mon Jun 17 23:40:22 +0000 2013", "coordinates": {"coordinates": [-47.0242535, -22.88317969]}, "entities": {"urls": [{"display_url": "instagram.com/p/arcfsIyunV/"}]}, "id_str": "346774349497393153", "_id": {"$oid": "52c6d1708ef20d397e482bfd"}, "user": {"id_str": "169985463", "name": "Lu Morato"}}, {"text": "#verasqueumfilhoteunaofoge\u00e0luta #orgulhodeserbrasileiro #vemprarua #ogiganteacordou @ \ud83d\udc9a\ud83d\udc9b\ud83d\udc99 BRASIL \ud83d\udc99\ud83d\udc9b\ud83d\udc9a http://t.co/LnWbYSzHGt", "created_at": "Mon Jun 17 23:43:01 +0000 2013", "coordinates": {"coordinates": [-49.26868038, -16.68517123]}, "entities": {"urls": [{"display_url": "instagram.com/p/arcp3LAc7x/"}]}, "id_str": "346775016039411712", "_id": {"$oid": "52c6d1718ef20d397e484f1e"}, "user": {"id_str": "1373419657", "name": "Luiz da Ana"}}, {"text": "A Avenida Faria Lima hoje! #vemprarua #ogiganteacordou \ud83d\udc4a\ud83d\udc4d\ud83d\ude0d @ Avenida Brigadeiro Faria Lima http://t.co/0MpI1QHY3j", "created_at": "Mon Jun 17 23:43:13 +0000 2013", "coordinates": {"coordinates": [-46.68695927, -23.5771643]}, "entities": {"urls": [{"display_url": "instagram.com/p/arc2EnIzzE/"}]}, "id_str": "346775065733509120", "_id": {"$oid": "52c6d1728ef20d397e4851ba"}, "user": {"id_str": "47397983", "name": "Alexandre Lima"}}, {"text": "#vemprarua @ Brasil http://t.co/KFTlD1gtan", "created_at": "Mon Jun 17 23:43:28 +0000 2013", "coordinates": {"coordinates": [-45.554001, -23.012164]}, "entities": {"urls": [{"display_url": "instagram.com/p/arc1j1j0v9/"}]}, "id_str": "346775129155596288", "_id": {"$oid": "52c6d1728ef20d397e48553f"}, "user": {"id_str": "95417828", "name": "Carol Nogali"}}, {"text": "Ver\u00e1s que um filho teu nao foge a luta ! \ud83d\udc9a\ud83d\udc9b #orgulho #vemprarua #ogiganteacordou #passelivre\u2026 http://t.co/Rqn5Fh1OIk", "created_at": "Mon Jun 17 23:45:58 +0000 2013", "coordinates": {"coordinates": [-46.624699, -23.49489721]}, "entities": {"urls": [{"display_url": "instagram.com/p/arc-6MDlvw/"}]}, "id_str": "346775759676928000", "_id": {"$oid": "52c6d1748ef20d397e487831"}, "user": {"id_str": "224642682", "name": "Amparado"}}, {"text": "VERAS QUE UM FILHO TEU N\u00c3O FOGE A LUTA! #ogiganteacordou #vemprarua @ BRASIL... POR UM PA\u00cdS MELHOR! http://t.co/4GTp6frI7g", "created_at": "Mon Jun 17 23:48:38 +0000 2013", "coordinates": {"coordinates": [-45.89173763, -23.1945004]}, "entities": {"urls": [{"display_url": "instagram.com/p/ardc_xNPXU/"}]}, "id_str": "346776428978778112", "_id": {"$oid": "52c6d1758ef20d397e489d97"}, "user": {"id_str": "313352396", "name": "Gabilurds"}}, {"text": "#changebrazil  #brazilianawake #boundlessdemocracy #brazil #LA Acorda \u23f0\u231b\ud83d\ude34\ud83d\udca4 @ Los Angeles, California http://t.co/16xM5ufRXR", "created_at": "Mon Jun 17 23:49:56 +0000 2013", "coordinates": {"coordinates": [-118.44471498, 34.03147394]}, "entities": {"urls": [{"display_url": "instagram.com/p/arc_uSyuQA/"}]}, "id_str": "346776755916398592", "_id": {"$oid": "52c6d1768ef20d397e48afac"}, "user": {"id_str": "67894228", "name": "Vitor Avelar"}}, {"text": "\"E quem um dia ira dizer que n\u00e3o existe raz\u00e3o para uma REVOLU\u00c7\u00c3O!!\" #sp #sp17j #vemprarua\u2026 http://t.co/YaEwbIh6K4", "created_at": "Mon Jun 17 23:57:11 +0000 2013", "coordinates": {"coordinates": [-46.83368417, -23.61176123]}, "entities": {"urls": [{"display_url": "instagram.com/p/areEhgtd7w/"}]}, "id_str": "346778581961166849", "_id": {"$oid": "52c6d17c8ef20d397e491b2a"}, "user": {"id_str": "288328840", "name": "Isa. Z"}}, {"text": "#OGiganteAcordou #VemPraRua #ChangeBrazil @ Best Western Sovereign Hotel http://t.co/llgGLYerSS", "created_at": "Mon Jun 17 23:57:37 +0000 2013", "coordinates": {"coordinates": [-73.82809281, 42.677459]}, "entities": {"urls": [{"display_url": "instagram.com/p/aregiuSrre/"}]}, "id_str": "346778691491221504", "_id": {"$oid": "52c6d17c8ef20d397e49218a"}, "user": {"id_str": "56136020", "name": "Adriano ALFF"}}, {"text": "Sem mais!#ogiganteacordou #changebrazil#verasqueumfilhoteunaofogealuta# @ Home, Sweet Home :) http://t.co/IIpRXsR2Ob", "created_at": "Tue Jun 18 02:02:26 +0000 2013", "coordinates": {"coordinates": [-79.49116667, 43.68583333]}, "entities": {"urls": [{"display_url": "instagram.com/p/arsu5-xEYK/"}]}, "id_str": "346810101333651456", "_id": {"$oid": "52c6d1808ef20d397e495c9b"}, "user": {"id_str": "200267655", "name": "Leide Lima"}}, {"text": "#Brasil #Brazil #progresso #paz #hope #copadasconfedera\u00e7\u00f5es #mudan\u00e7a #ogiganteacordou @ Ver\u00e1s que um\u2026 http://t.co/yL0G2YB9jC", "created_at": "Tue Jun 18 02:03:12 +0000 2013", "coordinates": {"coordinates": [-48.5957937, -27.59289]}, "entities": {"urls": [{"display_url": "instagram.com/p/arsnDrp9_r/"}]}, "id_str": "346810297341845504", "_id": {"$oid": "52c6d1808ef20d397e496256"}, "user": {"id_str": "126450049", "name": "Fernanda Furtado"}}, {"text": "Lindo! #Paztemvoz #SP #vemprarua @ Ponte Oct\u00e1vio Frias de Oliveira (Ponte Estaiada) http://t.co/OmZWp17NgF", "created_at": "Tue Jun 18 02:03:25 +0000 2013", "coordinates": {"coordinates": [-46.69869661, -23.61289334]}, "entities": {"urls": [{"display_url": "instagram.com/p/arsOFyO2bn/"}]}, "id_str": "346810351494496257", "_id": {"$oid": "52c6d1808ef20d397e4963dd"}, "user": {"id_str": "220885184", "name": "Joyce Santos"}}, {"text": "#Barretos #acordabrasil #ogiganteacordou #mudabrasil #doiemnos #democraciabrasil #vemprarua\u2026 http://t.co/jMdZaW1Nbw", "created_at": "Tue Jun 18 02:04:58 +0000 2013", "coordinates": {"coordinates": [-48.57210159, -20.55802318]}, "entities": {"urls": [{"display_url": "instagram.com/p/arsxXdIWmy/"}]}, "id_str": "346810739723481091", "_id": {"$oid": "52c6d1818ef20d397e496e8f"}, "user": {"id_str": "192358976", "name": "Vi\u0438\u00edci\u03c5\u0e23 B\u0454\u044fg\u03b1\u043c\u03c3"}}, {"text": "#ogiganteacordou #vemprarua #MudaBrasil #Brasil @ Brasil http://t.co/Ps9bM9uIW2", "created_at": "Tue Jun 18 02:05:23 +0000 2013", "coordinates": {"coordinates": [-40.17054972, -2.92185148]}, "entities": {"urls": [{"display_url": "instagram.com/p/ars69KALaO/"}]}, "id_str": "346810843658330113", "_id": {"$oid": "52c6d1818ef20d397e497194"}, "user": {"id_str": "258415672", "name": "S\u00edndel Vit\u00f3ria"}}, {"text": "#boanoite#brasil#ogiganteacordou#tamoJunto#Ordem#Dec\u00eancia#Justi\u00e7a#Paz#F\u00e9 @ Rep\u00fablica Federativa do\u2026 http://t.co/Th81xCEien", "created_at": "Tue Jun 18 02:10:49 +0000 2013", "coordinates": {"coordinates": [-38.51577082, -3.83058011]}, "entities": {"urls": [{"display_url": "instagram.com/p/arstZmKa2z/"}]}, "id_str": "346812210162577409", "_id": {"$oid": "52c6d1838ef20d397e499249"}, "user": {"id_str": "331447589", "name": "Roberto Mon'v\u00e1lette"}}, {"text": "#pracimaBrasil #ogiganteacordou #meudinheironao\u00e9papel #chegadecorrupcao #enao\u00e9por20centavos @ Brasil\u2026 http://t.co/gpbh83GnZD", "created_at": "Tue Jun 18 02:14:32 +0000 2013", "coordinates": {"coordinates": [-43.9087436, -19.6440019]}, "entities": {"urls": [{"display_url": "instagram.com/p/aruAU8rxXS/"}]}, "id_str": "346813149284012033", "_id": {"$oid": "52c6d1848ef20d397e49a8a6"}, "user": {"id_str": "47783368", "name": "Pedro Rivetti"}}, {"text": "#bras\u00edlia #congressonacional #pol\u00edtica #deputado  #protestorj #protestosp #portoalegre #macei\u00f3\u2026 http://t.co/VX1v6qSads", "created_at": "Tue Jun 18 02:17:52 +0000 2013", "coordinates": {"coordinates": [-43.32337402, -22.84424582]}, "entities": {"urls": [{"display_url": "instagram.com/p/arug0MJ3jk/"}]}, "id_str": "346813985380765697", "_id": {"$oid": "52c6d1858ef20d397e49bbbd"}, "user": {"id_str": "28655593", "name": "Toni   [CRF]"}}, {"text": "\" o povo que jazia em grandes trevas viu grande luz...\" - Is 9:2  #OgiganteAcordou #PatriaAmada\u2026 http://t.co/4DwoXh2QqL", "created_at": "Tue Jun 18 02:21:28 +0000 2013", "coordinates": {"coordinates": [-46.1431013, -23.5224515]}, "entities": {"urls": [{"display_url": "instagram.com/p/arulBJQTdp/"}]}, "id_str": "346814891237195778", "_id": {"$oid": "52c6d19b8ef20d397e49d15d"}, "user": {"id_str": "56490169", "name": "Leticia Ellis"}}, {"text": "De Collor a Dilma. @ Ponte Oct\u00e1vio Frias de Oliveira (Ponte Estaiada) http://t.co/gzxq1zDy6p", "created_at": "Tue Jun 18 02:23:37 +0000 2013", "coordinates": {"coordinates": [-46.69869661, -23.61289334]}, "entities": {"urls": [{"display_url": "instagram.com/p/arvJYaJfOa/"}]}, "id_str": "346815432969302017", "_id": {"$oid": "52c6d1a08ef20d397e49dd6f"}, "user": {"id_str": "64239680", "name": "Porrayssa"}}, {"text": "#ogiganteacordou #acordabrasil #VemPraRua @ Apod\u00ed http://t.co/YjTibEV7vu", "created_at": "Tue Jun 18 02:25:16 +0000 2013", "coordinates": {"coordinates": [-37.79423712, -5.66397086]}, "entities": {"urls": [{"display_url": "instagram.com/p/arvQjhRjZK/"}]}, "id_str": "346815849836974081", "_id": {"$oid": "52c6d1a28ef20d397e49e703"}, "user": {"id_str": "293745652", "name": "Riccelli CostA \u2655"}}, {"text": "Uma noite incr\u00edvel. Semblantes de contentamento. O riso f\u00e1cil. Que sensa\u00e7\u00e3o boa. #passelivre\u2026 http://t.co/pGKy6cM746", "created_at": "Tue Jun 18 02:26:03 +0000 2013", "coordinates": {"coordinates": [-46.68695927, -23.5771643]}, "entities": {"urls": [{"display_url": "instagram.com/p/aru2pqRqsP/"}]}, "id_str": "346816045614518273", "_id": {"$oid": "52c6d1a38ef20d397e49eb50"}, "user": {"id_str": "56530269", "name": "Edson Zoio"}}, {"text": "\ud83d\udc4f\ud83d\udc4f\ud83d\udc4f\ud83d\udc4f\ud83d\udc4f\ud83d\udc4f\ud83d\udc4f\ud83d\udc4f\ud83d\udc4f#mudabrasil #doiemtodos ..Ver\u00e1s que um filho teu n\u00e3o foge a luta.. @ Brasil http://t.co/x3qJvFx6Ra", "created_at": "Tue Jun 18 02:32:51 +0000 2013", "coordinates": {"coordinates": [-47.97626316, -15.81610369]}, "entities": {"urls": [{"display_url": "instagram.com/p/arwRoxrb4h/"}]}, "id_str": "346817757268017152", "_id": {"$oid": "52c6d1a68ef20d397e4a0e24"}, "user": {"id_str": "475081605", "name": "Camila de Carvalho"}}, {"text": "#Feliz #Ogiganteacordou #HelpBrazil #AcordaBrasil #OrgulhodeserBrasileiro @ Praca de Eventos -\u2026 http://t.co/LOiEmLy00x", "created_at": "Tue Jun 18 02:36:46 +0000 2013", "coordinates": {"coordinates": [-49.90374154, -6.06862029]}, "entities": {"urls": [{"display_url": "instagram.com/p/arwm5xD8dA/"}]}, "id_str": "346818741436309504", "_id": {"$oid": "52c6d1a78ef20d397e4a22a7"}, "user": {"id_str": "73164971", "name": "Rafael Brito"}}, {"text": "BURN!!!! #OGiganteAcordou #VemPraRua #ChangeBrazil @ Best Western Sovereign Hotel http://t.co/MDMJGGliVI", "created_at": "Tue Jun 18 02:40:58 +0000 2013", "coordinates": {"coordinates": [-73.82809281, 42.677459]}, "entities": {"urls": [{"display_url": "instagram.com/p/arxMdgyrnd/"}]}, "id_str": "346819801588572161", "_id": {"$oid": "52c6d1a88ef20d397e4a38a3"}, "user": {"id_str": "56136020", "name": "Adriano ALFF"}}, {"text": "N\u00e3o \u00e9 pelo pre\u00e7o da conta. \u00c9 pela qualidade dos servi\u00e7os. Acorda Brasil!!! #vemprarua #vemprajanela\u2026 http://t.co/wdEah8LnyY", "created_at": "Tue Jun 18 02:43:50 +0000 2013", "coordinates": {"coordinates": [-49.291566, -25.457232]}, "entities": {"urls": [{"display_url": "instagram.com/p/arxQyUzBCx/"}]}, "id_str": "346820522161602560", "_id": {"$oid": "52c6d1a98ef20d397e4a479d"}, "user": {"id_str": "11512662", "name": "Mauricio\u2122. "}}, {"text": "jesuislaboissiere #MudaBrasil #ManifestoBel\u00e9m #VemPraRua #PovoNaRua #VemPraJanela #ManifestoPar\u00e1\u2026 http://t.co/fUNU0yDzul", "created_at": "Tue Jun 18 02:49:35 +0000 2013", "coordinates": {"coordinates": [-48.45799901, -1.4264047]}, "entities": {"urls": [{"display_url": "instagram.com/p/aryK7hTFW0/"}]}, "id_str": "346821968223432705", "_id": {"$oid": "52c6d1aa8ef20d397e4a6463"}, "user": {"id_str": "322938511", "name": "Rog\u00e9rio Laboissi\u00e8re"}}, {"text": "#OGigantenteAcordou #PraCimaRevolu\u00e7ao #VemPraRua #VaiBrasil #DedoNaFerida\u2026 http://t.co/dsK8QtWMrs", "created_at": "Tue Jun 18 02:49:55 +0000 2013", "coordinates": {"coordinates": [-44.3163335, -23.0035467]}, "entities": {"urls": [{"display_url": "instagram.com/p/aryGGOldk_/"}]}, "id_str": "346822053837565952", "_id": {"$oid": "52c6d1aa8ef20d397e4a6611"}, "user": {"id_str": "365017518", "name": "Adilson L\u00facio"}}, {"text": "#ogiganteacordou #mudabrasil #instamudan\u00e7a @ Brasil http://t.co/NKfBQBt1iG", "created_at": "Tue Jun 18 02:51:58 +0000 2013", "coordinates": {"coordinates": [-40.1885671, -10.4683916]}, "entities": {"urls": [{"display_url": "instagram.com/p/aryI_1rJno/"}]}, "id_str": "346822568457687040", "_id": {"$oid": "52c6d1ab8ef20d397e4a713d"}, "user": {"id_str": "1345764050", "name": "kleitonpimenta"}}, {"text": "@ladygaga and @britneyspears supporting the Brazilian cause!! #changeBrazil\u2026 http://t.co/2WqWuPCC4a", "created_at": "Tue Jun 18 02:53:20 +0000 2013", "coordinates": {"coordinates": [100.55203886, 13.73230027]}, "entities": {"urls": [{"display_url": "instagram.com/p/arybHukT5Z/"}]}, "id_str": "346822912600338433", "_id": {"$oid": "52c6d1ab8ef20d397e4a780b"}, "user": {"id_str": "33570378", "name": "rom\u00e9o cavalcante"}}, {"text": "V.I.S.H.N.U., de 2012, no tra\u00e7o de @fabiocobiaco #SP17j @ Ponte Oct\u00e1vio Frias de Oliveira (Ponte\u2026 http://t.co/LLGzqGwW0w", "created_at": "Tue Jun 18 02:53:49 +0000 2013", "coordinates": {"coordinates": [-46.69869661, -23.61289334]}, "entities": {"urls": [{"display_url": "instagram.com/p/aryc5XrZEE/"}]}, "id_str": "346823034390343680", "_id": {"$oid": "52c6d1ab8ef20d397e4a7a40"}, "user": {"id_str": "14194620", "name": "Ronaldo Bressane"}}, {"text": "Todos unidos em prol do bem comum!  M\u00e3o ao alto, 3,20 \u00e9 um assalto #ogiganteacordou #vemprarua @ Brasil http://t.co/3ArCW4iRrv", "created_at": "Tue Jun 18 02:56:27 +0000 2013", "coordinates": {"coordinates": [-46.5681065, -23.4825127]}, "entities": {"urls": [{"display_url": "instagram.com/p/ary3ubOZYZ/"}]}, "id_str": "346823696947752960", "_id": {"$oid": "52c6d1ac8ef20d397e4a8729"}, "user": {"id_str": "172120221", "name": "Let\u00edcia Peixoto"}}, {"text": "#Ogiganteacordou #oBrasilnarua #mudaBrasil #vejoumarevolu\u00e7\u00e3onascendo #foraDilma\u2026 http://t.co/PC1RCnwpbZ", "created_at": "Tue Jun 18 02:56:52 +0000 2013", "coordinates": {"coordinates": [-49.6072534, -15.31334057]}, "entities": {"urls": [{"display_url": "instagram.com/p/arysRbEjHS/"}]}, "id_str": "346823799611719681", "_id": {"$oid": "52c6d1ac8ef20d397e4a8957"}, "user": {"id_str": "265135817", "name": "Tha\u00eds Rodrigues"}}, {"text": "#VEMPRARUA #VERASQUEUMFILHOTEUN\u00c3OFOGEALUTA @ Jujubal\u00e2ndia http://t.co/IYERRTLabb", "created_at": "Tue Jun 18 04:03:28 +0000 2013", "coordinates": {"coordinates": [-34.8465798, -7.9754968]}, "entities": {"urls": [{"display_url": "instagram.com/p/ar6hYOCinS/"}]}, "id_str": "346840563129151488", "_id": {"$oid": "52c6d1ae8ef20d397e4aa138"}, "user": {"id_str": "101208567", "name": "FlorMathias"}}, {"text": "\u00c9 disso que o povo gosta! @ #changebrazil http://t.co/4lPtXK71Vf", "created_at": "Tue Jun 18 04:05:39 +0000 2013", "coordinates": {"coordinates": [-60.04135106, -3.07520951]}, "entities": {"urls": [{"display_url": "instagram.com/p/ar6xDUSsmz/"}]}, "id_str": "346841111924449280", "_id": {"$oid": "52c6d1ae8ef20d397e4aa5c0"}, "user": {"id_str": "177027358", "name": "Victor Growller"}}, {"text": "Jogaram mentos na gera\u00e7\u00e3o Coca-Cola ! #ogiganteacordou #ForaDIUMAvez #brazilian @ Brasil em Progresso ! http://t.co/K37pNRMya5", "created_at": "Tue Jun 18 04:11:36 +0000 2013", "coordinates": {"coordinates": [-39.2871538, -11.5610226]}, "entities": {"urls": [{"display_url": "instagram.com/p/ar7nN2i2KM/"}]}, "id_str": "346842609836249088", "_id": {"$oid": "52c6d1af8ef20d397e4ab1fc"}, "user": {"id_str": "186944002", "name": "VittorFox   \u221e"}}, {"text": "Nada al\u00e9m de mudar o pa\u00eds #brasilacordou #ver\u00e1squeumfilhoteunaofogealuta #vemprarua #gritasemtermedo\u2026 http://t.co/rjAI27dZI7", "created_at": "Tue Jun 18 04:14:13 +0000 2013", "coordinates": {"coordinates": [-43.32853702, -23.00870164]}, "entities": {"urls": [{"display_url": "instagram.com/p/ar6isPHVeJ/"}]}, "id_str": "346843268811726848", "_id": {"$oid": "52c6d1af8ef20d397e4ab741"}, "user": {"id_str": "40513621", "name": "Ana Carolina Prado"}}, {"text": "\ud83d\udc9a\ud83d\udc9b\ud83d\udc99#whitemonday #changebrazil #itsnotabout20cents #vemprarua #verasqueumfilhoteunaofogealuta\u2026 http://t.co/hF520uQ9aa", "created_at": "Tue Jun 18 04:18:28 +0000 2013", "coordinates": {"coordinates": [-51.36358596, -29.49053304]}, "entities": {"urls": [{"display_url": "instagram.com/p/ar8R9RSUk4/"}]}, "id_str": "346844334521454593", "_id": {"$oid": "52c6d1b08ef20d397e4ac06d"}, "user": {"id_str": "239800157", "name": "Luana Barkert"}}, {"text": "#mudabrasil #forapt #foradilma #dilman\u00e3omerepresenta #doiemtodosn\u00f3s #ogiganteacordou @ Home sweet home\u2026 http://t.co/6NKT2OMLP5", "created_at": "Tue Jun 18 04:19:36 +0000 2013", "coordinates": {"coordinates": [-49.27513383, -16.7034528]}, "entities": {"urls": [{"display_url": "instagram.com/p/ar8eEoq5xB/"}]}, "id_str": "346844621952921600", "_id": {"$oid": "52c6d1b08ef20d397e4ac2dc"}, "user": {"id_str": "88449054", "name": "Rebeca Perilo"}}, {"text": "Chega de ter vergonha de casa! #vemprarua #protestoES #vdevinagre #boicoteacopa @ Terceira Ponte http://t.co/DuDcDesTZP", "created_at": "Tue Jun 18 04:20:24 +0000 2013", "coordinates": {"coordinates": [-40.28432858, -20.32060789]}, "entities": {"urls": [{"display_url": "instagram.com/p/ar6tQUkJDT/"}]}, "id_str": "346844821232705536", "_id": {"$oid": "52c6d1b08ef20d397e4ac46e"}, "user": {"id_str": "34663302", "name": "higor volino"}}, {"text": "#lourivaln\u00e3omerepresenta #acordabrasil #brasilmuda #chegadeabusos #democraciaouditadura #mudabrasil\u2026 http://t.co/ILp4CgST4B", "created_at": "Tue Jun 18 04:23:13 +0000 2013", "coordinates": {"coordinates": [-47.0242535, -22.88317969]}, "entities": {"urls": [{"display_url": "instagram.com/p/ar8q6-Suk4/"}]}, "id_str": "346845531907162112", "_id": {"$oid": "52c6d1b18ef20d397e4aca63"}, "user": {"id_str": "169985463", "name": "Lu Morato"}}, {"text": "\" ter a voz ativa, mas manter o respeito .\" \n\n#BrasilMeuSeuNosso #AcordaBrasil #VemPraRua\u2026 http://t.co/b4ooKnmGxI", "created_at": "Tue Jun 18 04:29:49 +0000 2013", "coordinates": {"coordinates": [-43.17924142, -22.90340559]}, "entities": {"urls": [{"display_url": "instagram.com/p/ar9nB8DCBL/"}]}, "id_str": "346847192381792256", "_id": {"$oid": "52c6d1b18ef20d397e4ad6a0"}, "user": {"id_str": "129715289", "name": " CarolaCarolisCarol\u30c4"}}, {"text": "#GritaSemTerMedoBrasil #ChangeBrazil @ Brasil um pa\u00eds de TODOS http://t.co/VOHTnFrmS4", "created_at": "Tue Jun 18 04:31:03 +0000 2013", "coordinates": {"coordinates": [-47.3124929, -22.7124673]}, "entities": {"urls": [{"display_url": "instagram.com/p/ar9VxAE2pR/"}]}, "id_str": "346847502189875200", "_id": {"$oid": "52c6d1b18ef20d397e4ad8b8"}, "user": {"id_str": "65089364", "name": "Lele Dionizio"}}, {"text": "#ogiganteacordou @ Residencial Juvenal Lamartine http://t.co/8lufBu9juq", "created_at": "Tue Jun 18 04:44:20 +0000 2013", "coordinates": {"coordinates": [-35.19894757, -5.7858043]}, "entities": {"urls": [{"display_url": "instagram.com/p/ar_TgiKL-o/"}]}, "id_str": "346850844366475267", "_id": {"$oid": "52c6d1b28ef20d397e4aecbe"}, "user": {"id_str": "27372933", "name": "Enio Sinedino"}}, {"text": "#mudabrasil #vempraruagoiania #vemprarua #saidofaceevaiprarua #porumpa\u00edsmelhor #brasilmostratuacara\u2026 http://t.co/T3RTV4JP7n", "created_at": "Tue Jun 18 04:46:52 +0000 2013", "coordinates": {"coordinates": [-49.24152374, -16.7136898]}, "entities": {"urls": [{"display_url": "instagram.com/p/ar_Q7OSHan/"}]}, "id_str": "346851484077539328", "_id": {"$oid": "52c6d1b28ef20d397e4af025"}, "user": {"id_str": "65194835", "name": "Thiago Sandroni "}}, {"text": "#vemprarua #emprogresso #boanoite @ Pra\u00e7a da Candel\u00e1ria http://t.co/9qDr0HhzQv", "created_at": "Tue Jun 18 04:49:45 +0000 2013", "coordinates": {"coordinates": [-43.17857623, -22.90103365]}, "entities": {"urls": [{"display_url": "instagram.com/p/ar_vQDxvzg/"}]}, "id_str": "346852210132545536", "_id": {"$oid": "52c6d1b38ef20d397e4af3cb"}, "user": {"id_str": "207262647", "name": "leonardoojorge"}}, {"text": "Apoio dos estudantes brasileiros na UC Davis aos manifestantes no Brasil #changebrazil\u2026 http://t.co/zhoHDbxZLm", "created_at": "Tue Jun 18 04:54:17 +0000 2013", "coordinates": {"coordinates": [-121.74955487, 38.54233354]}, "entities": {"urls": [{"display_url": "instagram.com/p/asAV9ysfc_/"}]}, "id_str": "346853350219849729", "_id": {"$oid": "52c6d1b38ef20d397e4af8e5"}, "user": {"id_str": "22402255", "name": "raulala"}}, {"text": "O dia \u00e9 hoje, a hora \u00e9 agora!  #ogiganteacordou \ud83d\udc9a\ud83d\udc9b @ \ud83d\udd30P\u00e1tria amada BRASIL! http://t.co/4LndGsxREF", "created_at": "Tue Jun 18 04:55:57 +0000 2013", "coordinates": {"coordinates": [-43.19202053, -22.97996995]}, "entities": {"urls": [{"display_url": "instagram.com/p/asAP7OgXLc/"}]}, "id_str": "346853770442977280", "_id": {"$oid": "52c6d1b38ef20d397e4afab4"}, "user": {"id_str": "58460313", "name": "Claudia Menezes"}}, {"text": "Organizar o movimento, pra derrubar o aumento!\n#VemPraRua #Protesto #SP #M\u00e3osParaOAlto #5Ato\u2026 http://t.co/44zwhDUJF6", "created_at": "Tue Jun 18 04:59:07 +0000 2013", "coordinates": {"coordinates": [-46.68695927, -23.5771643]}, "entities": {"urls": [{"display_url": "instagram.com/p/asAbtih5aA/"}]}, "id_str": "346854565397815296", "_id": {"$oid": "52c6d1b38ef20d397e4afde0"}, "user": {"id_str": "116958160", "name": "Maay \u2654"}}, {"text": "Onde \u00e9 mesmo a maior arquibancada do Brasil? #acre #vemprarua @ Pal\u00e1cio Rio Branco http://t.co/PymF65xqZK", "created_at": "Tue Jun 18 04:59:16 +0000 2013", "coordinates": {"coordinates": [-67.80949473, -9.97521179]}, "entities": {"urls": [{"display_url": "instagram.com/p/asA7CxQtMR/"}]}, "id_str": "346854604270612480", "_id": {"$oid": "52c6d1b38ef20d397e4afe10"}, "user": {"id_str": "56840733", "name": "Daniel Ribeiro \uf8ff"}}, {"text": "#ogiganteacordou #vempraruamanaus @ manaus http://t.co/u8fIyy8eNu", "created_at": "Tue Jun 18 03:00:59 +0000 2013", "coordinates": {"coordinates": [-60.04207993, -3.12043285]}, "entities": {"urls": [{"display_url": "instagram.com/p/arzd9AtRMq/"}]}, "id_str": "346824838259802112", "_id": {"$oid": "52c6d1b38ef20d397e4affe7"}, "user": {"id_str": "253728146", "name": "P\u00e2mela Campos"}}, {"text": "Boa Noite!! #OGiganteAcordou #MudaBrasil #VerasQueUmFilhoTeuNaoFogeALuta @ P\u00e1tria Amada Brasil http://t.co/mfMYR3IbJx", "created_at": "Tue Jun 18 03:04:20 +0000 2013", "coordinates": {"coordinates": [-38.50118507, -12.97466467]}, "entities": {"urls": [{"display_url": "instagram.com/p/arzvaGOcpu/"}]}, "id_str": "346825680014684160", "_id": {"$oid": "52c6d1b48ef20d397e4b0dc6"}, "user": {"id_str": "149214352", "name": "Nanda Duarte"}}, {"text": "Boa noite. #acordaBrasil #oGiganteacordou #oBrasilacordou @ Rep\u00fablica Federativa do Brasil http://t.co/UKYL97Lpza", "created_at": "Tue Jun 18 03:06:41 +0000 2013", "coordinates": {"coordinates": [-54.62883982, -20.46518976]}, "entities": {"urls": [{"display_url": "instagram.com/p/ar0BPLugl9/"}]}, "id_str": "346826269926768641", "_id": {"$oid": "52c6d1b58ef20d397e4b1a25"}, "user": {"id_str": "48596021", "name": "Diego Carioca"}}, {"text": "#orgulho de quem vai a #luta! #valeuBrasil #ogiganteacordou @ Brasil http://t.co/m2fqM0GO4K", "created_at": "Tue Jun 18 03:08:22 +0000 2013", "coordinates": {"coordinates": [-47.88978004, -20.72284943]}, "entities": {"urls": [{"display_url": "instagram.com/p/ar0Qlkq0vy/"}]}, "id_str": "346826693522096128", "_id": {"$oid": "52c6d1b68ef20d397e4b21ec"}, "user": {"id_str": "291707826", "name": "Juliana Ruzzene \u221e"}}, {"text": "Manifestantes refletidos em constru\u00e7\u00e3o da Faria Lima. Incr\u00edvel!!! #ProtestoSP #SP17j #Mobilizados @\u2026 http://t.co/zDnxPGOXFq", "created_at": "Tue Jun 18 03:08:39 +0000 2013", "coordinates": {"coordinates": [-46.68695927, -23.5771643]}, "entities": {"urls": [{"display_url": "instagram.com/p/ar0PeVvBAX/"}]}, "id_str": "346826765156638720", "_id": {"$oid": "52c6d1b68ef20d397e4b2343"}, "user": {"id_str": "38981351", "name": "Leonardo Bussolo"}}, {"text": "#oGIGANTEacordou @ Brasil em obras http://t.co/fzh6lFOdGX", "created_at": "Tue Jun 18 03:10:02 +0000 2013", "coordinates": {"coordinates": [-38.49524893, -3.81949968]}, "entities": {"urls": [{"display_url": "instagram.com/p/ar0gz8l9vZ/"}]}, "id_str": "346827116572184576", "_id": {"$oid": "52c6d1b68ef20d397e4b2953"}, "user": {"id_str": "237456399", "name": "Scott Pilgrin"}}, {"text": "#segundafeirabranca #valeuBrasil #ogiganteacordou @ Brasil http://t.co/OviZFKD8NS", "created_at": "Tue Jun 18 03:11:36 +0000 2013", "coordinates": {"coordinates": [-47.88978004, -20.72284943]}, "entities": {"urls": [{"display_url": "instagram.com/p/ar0uFWq0gg/"}]}, "id_str": "346827507217076225", "_id": {"$oid": "52c6d1b68ef20d397e4b2f74"}, "user": {"id_str": "291707826", "name": "Juliana Ruzzene \u221e"}}, {"text": "#OgiganteAcordou #At\u00e9Quando? #PraRuaBrasil @ Sweet Home http://t.co/GTBjiJy5iw", "created_at": "Tue Jun 18 03:16:12 +0000 2013", "coordinates": {"coordinates": [-38.51772325, -13.00161697]}, "entities": {"urls": [{"display_url": "instagram.com/p/ar1DljJR7g/"}]}, "id_str": "346828667424477184", "_id": {"$oid": "52c6d1b78ef20d397e4b41a7"}, "user": {"id_str": "152368160", "name": "Guga Fernandes"}}, {"text": "n\u00e3o s\u00e3o s\u00f3 20 centavos #semviolencia #semvandalismo #vemprarua @ Faria Lima Square http://t.co/TJFGSb75kg", "created_at": "Tue Jun 18 03:20:15 +0000 2013", "coordinates": {"coordinates": [-46.6824015, -23.58827751]}, "entities": {"urls": [{"display_url": "instagram.com/p/ar1n8IlDRh/"}]}, "id_str": "346829686258692096", "_id": {"$oid": "52c6d1b88ef20d397e4b51b9"}, "user": {"id_str": "48179049", "name": "Laura Vicente"}}, {"text": "@katyperry also joined us to Brazilian cause!! #KatyPerry #ChangeBrazil #ForaCorruptos #MenosImpostos\u2026 http://t.co/pHHkkkyVvN", "created_at": "Tue Jun 18 03:24:16 +0000 2013", "coordinates": {"coordinates": [100.55203886, 13.73230027]}, "entities": {"urls": [{"display_url": "instagram.com/p/ar17WfkT-6/"}]}, "id_str": "346830698516205568", "_id": {"$oid": "52c6d1b98ef20d397e4b60ba"}, "user": {"id_str": "33570378", "name": "rom\u00e9o cavalcante"}}, {"text": "Hoje foi um dia incrivel e amanha continua. Vamos juntos! #saopaulo #mudabrasil #changebrazil\u2026 http://t.co/3BtAYDDGOQ", "created_at": "Tue Jun 18 03:24:20 +0000 2013", "coordinates": {"coordinates": [-46.65973457, -23.55887552]}, "entities": {"urls": [{"display_url": "instagram.com/p/ar18mSvBea/"}]}, "id_str": "346830712495828992", "_id": {"$oid": "52c6d1b98ef20d397e4b60fb"}, "user": {"id_str": "393848250", "name": "Renan Quaresma"}}, {"text": "\"Transformar algumas centenas em MILH\u00d5ES!\" #VempraRUA #ogiganteacordou #everythingchanges @ BRASIL! http://t.co/VNUGfaBRD8", "created_at": "Tue Jun 18 03:27:09 +0000 2013", "coordinates": {"coordinates": [-35.8931741, -7.21273136]}, "entities": {"urls": [{"display_url": "instagram.com/p/ar1d4zKoaM/"}]}, "id_str": "346831422729895936", "_id": {"$oid": "52c6d1b98ef20d397e4b6c03"}, "user": {"id_str": "160722729", "name": "Daniela S."}}, {"text": "Certos reflexos da realidade s\u00f3 v\u00ea quem quer #vemprarua @ Edif\u00edcio P\u00e1tio Malzoni http://t.co/v3ZDYToQJy", "created_at": "Tue Jun 18 03:28:54 +0000 2013", "coordinates": {"coordinates": [-46.68215625, -23.5869394]}, "entities": {"urls": [{"display_url": "instagram.com/p/ar2sa8vdoo/"}]}, "id_str": "346831861202423809", "_id": {"$oid": "52c6d1ba8ef20d397e4b7268"}, "user": {"id_str": "19161654", "name": "stalker"}}, {"text": "#BrasilAcordou #VemPraRua #FilhoTeuN\u00e3oFogeALuta #TagsForLikes tagsforlikes  Vamo que vamo Brasil !!!!\u2026 http://t.co/KTEBqcbhRo", "created_at": "Tue Jun 18 03:38:49 +0000 2013", "coordinates": {"coordinates": [-43.251577, -22.812073]}, "entities": {"urls": [{"display_url": "instagram.com/p/ar3m1eEAmp/"}]}, "id_str": "346834357392113665", "_id": {"$oid": "52c6d1bb8ef20d397e4b94e7"}, "user": {"id_str": "84375680", "name": "Let\u00edcia Morena"}}, {"text": "#vemprarua #protestaSP @ Avenida Paulista http://t.co/F2j8TUO0Ur", "created_at": "Tue Jun 18 03:41:20 +0000 2013", "coordinates": {"coordinates": [-46.65973457, -23.55887552]}, "entities": {"urls": [{"display_url": "instagram.com/p/ar4BiDFs5B/"}]}, "id_str": "346834991210176512", "_id": {"$oid": "52c6d1bc8ef20d397e4b9c2f"}, "user": {"id_str": "9076682", "name": "Henrique"}}, {"text": "Sem mais. #ogiganteacordou #vemprarua @ Centro Hist\u00f3rico http://t.co/GKezxJ059F", "created_at": "Tue Jun 18 03:41:40 +0000 2013", "coordinates": {"coordinates": [-51.23010635, -30.03278308]}, "entities": {"urls": [{"display_url": "instagram.com/p/ar4DZzzYvK/"}]}, "id_str": "346835077046624256", "_id": {"$oid": "52c6d1bc8ef20d397e4b9d47"}, "user": {"id_str": "80728237", "name": "gigiSerelepe"}}, {"text": "#compartilha ae. #fdp #saifora #ogiganteacordou #acordabrasil @ S\u00e3o Paulo http://t.co/yCLG3WB9bg", "created_at": "Tue Jun 18 03:45:24 +0000 2013", "coordinates": {"coordinates": [-46.51505923, -23.56364061]}, "entities": {"urls": [{"display_url": "instagram.com/p/ar4hgThVsT/"}]}, "id_str": "346836016306475009", "_id": {"$oid": "52c6d1bc8ef20d397e4ba8e4"}, "user": {"id_str": "335226768", "name": "Rodrigo Roque Borges"}}, {"text": "#VemPraRua #OGiganteAcordou @ Campinas http://t.co/p1HK0wtOsO", "created_at": "Tue Jun 18 03:45:37 +0000 2013", "coordinates": {"coordinates": [-47.06628799, -22.90361313]}, "entities": {"urls": [{"display_url": "instagram.com/p/ar4fFrizqf/"}]}, "id_str": "346836068173225984", "_id": {"$oid": "52c6d1bc8ef20d397e4ba97b"}, "user": {"id_str": "41240469", "name": "Railton Perenha"}}, {"text": "#VemVamosPraRuaManaus #Ver\u00e1sQueUmFilhoTeuNaoFogeALuta #AbaixoRedeGloboPovoNao\u00e9bobo #PorUmBrasilOnde\u2026 http://t.co/mDROHnmuHA", "created_at": "Tue Jun 18 03:48:54 +0000 2013", "coordinates": {"coordinates": [-60.0557199, -3.0831057]}, "entities": {"urls": [{"display_url": "instagram.com/p/ar4vpQq9hL/"}]}, "id_str": "346836897382936576", "_id": {"$oid": "52c6d1bd8ef20d397e4bb34d"}, "user": {"id_str": "326884677", "name": "Thalia Maravilha "}}, {"text": "Vamos as ruas meu povo! o/ #OGiganteAcordou #EstadoDemocraticoDeDireito #ALutaPeloDireitoContinua\u2026 http://t.co/hm6QmMyrKn", "created_at": "Tue Jun 18 05:13:08 +0000 2013", "coordinates": {"coordinates": [-54.7251594, -2.4357663]}, "entities": {"urls": [{"display_url": "instagram.com/p/asCMGvI3Rh/"}]}, "id_str": "346858095244369920", "_id": {"$oid": "52c6d1bf8ef20d397e4bdf1a"}, "user": {"id_str": "400505052", "name": "Edu Mocorongu\u00eas"}}, {"text": "#foraPT #foraDilma #cadeiaLula #prafrentebrasil #vemprarua #protesto #manifesto #acordaBrasil\u2026 http://t.co/8T0jBRKal8", "created_at": "Tue Jun 18 05:17:30 +0000 2013", "coordinates": {"coordinates": [-49.3537346, -20.8086965]}, "entities": {"urls": [{"display_url": "instagram.com/p/asC9cbLFEt/"}]}, "id_str": "346859194609188864", "_id": {"$oid": "52c6d1c08ef20d397e4be2cf"}, "user": {"id_str": "91326226", "name": "Paulinho Ribeiro"}}, {"text": "#AcordaBrasil #BrasilMostraSuaCara #OGiganteAcordou #OBrasilAcordou @ Aki \u00f3h o/ http://t.co/L9kp3OvjMr", "created_at": "Tue Jun 18 05:19:32 +0000 2013", "coordinates": {"coordinates": [-46.79178114, -23.52022079]}, "entities": {"urls": [{"display_url": "instagram.com/p/asDMUIvB2y/"}]}, "id_str": "346859703806083073", "_id": {"$oid": "52c6d1c08ef20d397e4be459"}, "user": {"id_str": "185515240", "name": "Dj Betynhu Oficial"}}, {"text": "O DA Compasso apoia protestos pac\u00edficos pela melhoria urbana!!!!!\n#vemprarua #acordamaranh\u00e3o\u2026 http://t.co/pq8RGztSOD", "created_at": "Tue Jun 18 05:32:10 +0000 2013", "coordinates": {"coordinates": [-44.30558118, -2.53207197]}, "entities": {"urls": [{"display_url": "instagram.com/p/asEj4wAfLq/"}]}, "id_str": "346862885353426946", "_id": {"$oid": "52c6d1c08ef20d397e4bed7e"}, "user": {"id_str": "18884118", "name": "Mar\u00edlia Amorim"}}, {"text": "N\u00e3o adianta ignorar #mudabrasil #vemprarua @ Residencial New Classic http://t.co/pYyuAWyi4i", "created_at": "Tue Jun 18 05:34:37 +0000 2013", "coordinates": {"coordinates": [-56.08303989, -15.59124736]}, "entities": {"urls": [{"display_url": "instagram.com/p/asE5pAnF04/"}]}, "id_str": "346863499919634432", "_id": {"$oid": "52c6d1c08ef20d397e4bef3d"}, "user": {"id_str": "138107398", "name": "Junior Brito"}}, {"text": "\" Dos filhos deste solo \u00e9s m\u00e3e gentil. P\u00e1tria Amada Brasil \"  #ogiganteacordou #vemprarua\u2026 http://t.co/4tL69hEKq1", "created_at": "Tue Jun 18 05:37:45 +0000 2013", "coordinates": {"coordinates": [-58.4332351, -3.1422192]}, "entities": {"urls": [{"display_url": "instagram.com/p/asFJ9GH1zr/"}]}, "id_str": "346864287391834112", "_id": {"$oid": "52c6d1c18ef20d397e4bf1af"}, "user": {"id_str": "169650071", "name": "t, Bianca []"}}, {"text": "#vempraruarecife  #ogiganteacordou @ Pra\u00e7a do derby http://t.co/Z41Lqj5Ifa", "created_at": "Tue Jun 18 05:38:18 +0000 2013", "coordinates": {"coordinates": [-34.9365, -8.1973]}, "entities": {"urls": [{"display_url": "instagram.com/p/asFVMYHMRH/"}]}, "id_str": "346864426827272193", "_id": {"$oid": "52c6d1c18ef20d397e4bf229"}, "user": {"id_str": "54423246", "name": "gilberto azevedo"}}, {"text": "#AcordaBrasil #BrasilMostraSuaCara #OGiganteAcordou #OBrasilAcordou @ Aki \u00f3h o/ http://t.co/enlL1MwBmy", "created_at": "Tue Jun 18 05:38:33 +0000 2013", "coordinates": {"coordinates": [-46.79178114, -23.52022079]}, "entities": {"urls": [{"display_url": "instagram.com/p/asFe7APB4s/"}]}, "id_str": "346864488319950848", "_id": {"$oid": "52c6d1c18ef20d397e4bf25b"}, "user": {"id_str": "185515240", "name": "Dj Betynhu Oficial"}}, {"text": "RESITIR \u00c9 PRECISO !!! #vemprarua #oGIGANTEacordou #verasqueumfilhoteunaofogealuta #mudabrasil\u2026 http://t.co/VmNhmSgu2h", "created_at": "Tue Jun 18 05:39:00 +0000 2013", "coordinates": {"coordinates": [-43.273989, -22.905966]}, "entities": {"urls": [{"display_url": "instagram.com/p/asEjgvha4r/"}]}, "id_str": "346864602786717697", "_id": {"$oid": "52c6d1c18ef20d397e4bf2ac"}, "user": {"id_str": "212819517", "name": "rhayanne costa"}}, {"text": "#Ver\u00e1sQueUmFilhoTeuN\u00e3oFogeALuta #mudabrasil #GritaSemTerMedoBrasil #vemprarua #redesolidaria #Brasil\u2026 http://t.co/VKFHVu65mJ", "created_at": "Tue Jun 18 05:52:24 +0000 2013", "coordinates": {"coordinates": [-59.9787199, -2.9959538]}, "entities": {"urls": [{"display_url": "instagram.com/p/asG2HyqKLt/"}]}, "id_str": "346867975627874306", "_id": {"$oid": "52c6d1c18ef20d397e4bf9c8"}, "user": {"id_str": "314150076", "name": "\u265a CarmemMedeiros \u265a"}}, {"text": "... e voc\u00ea ainda insiste em continuar em casa? #vemPRArua @ Avenida dos Aliados http://t.co/SyW9b29lvg", "created_at": "Tue Jun 18 17:17:25 +0000 2013", "coordinates": {"coordinates": [-8.61140504, 41.14636204]}, "entities": {"urls": [{"display_url": "instagram.com/p/atVcdVpxfH/"}]}, "id_str": "347040366366707713", "_id": {"$oid": "52c6d1c28ef20d397e4c0058"}, "user": {"id_str": "137543286", "name": "Filipe Aquino"}}, {"text": "O triste fim de uma maquete p\u00f3s atendimento. Depredaram meu patrim\u00f4nio. #vemprarua #changebrazil\u2026 http://t.co/V4gUEyaCX4", "created_at": "Tue Jun 18 19:43:53 +0000 2013", "coordinates": {"coordinates": [-43.23412374, -22.98109637]}, "entities": {"urls": [{"display_url": "instagram.com/p/atmTyhJyg5/"}]}, "id_str": "347077226707177472", "_id": {"$oid": "52c6d1c28ef20d397e4c023b"}, "user": {"id_str": "37597161", "name": "Zeca"}}, {"text": "#mudabrasil #ogiganteacordou #acordabrasil @ Caixa http://t.co/0PlPptyr3A", "created_at": "Tue Jun 18 19:45:52 +0000 2013", "coordinates": {"coordinates": [-43.93745363, -19.91937763]}, "entities": {"urls": [{"display_url": "instagram.com/p/atmiINNmiQ/"}]}, "id_str": "347077723153387521", "_id": {"$oid": "52c6d1c28ef20d397e4c04ed"}, "user": {"id_str": "540744326", "name": "Adeilton da Silva"}}, {"text": "Na surdina... Que absurdo isso gente!!!\n#Brasil #AcordaBrasil #vemprarua #CDH #forafeliciano #vergonha\u2026 http://t.co/a38ZiVaJYy", "created_at": "Tue Jun 18 19:56:32 +0000 2013", "coordinates": {"coordinates": [-3.70355129, 40.41663279]}, "entities": {"urls": [{"display_url": "instagram.com/p/atnQZ3i-Ly/"}]}, "id_str": "347080409479254016", "_id": {"$oid": "52c6d1c38ef20d397e4c147c"}, "user": {"id_str": "300281715", "name": "Jefferson Farias"}}, {"text": "#changebrazil #verasqueumfilhoteunaofogealuta #vemprarua #legiaourbana @ S\u00e9 http://t.co/K3uQFT9lXk", "created_at": "Tue Jun 18 19:56:37 +0000 2013", "coordinates": {"coordinates": [-46.63136244, -23.55011033]}, "entities": {"urls": [{"display_url": "instagram.com/p/atnkdwR9Q6/"}]}, "id_str": "347080429892927488", "_id": {"$oid": "52c6d1c38ef20d397e4c14a1"}, "user": {"id_str": "42290297", "name": "\u2014vulgo Pet"}}, {"text": "Vem pra rua vc tb! Manifesta\u00e7\u00e3o em Munich! #VamosBrasil #acordabrasil #ogiganteacordou #m\u00fcnchen\u2026 http://t.co/wPhRAhBG8n", "created_at": "Tue Jun 18 08:15:19 +0000 2013", "coordinates": {"coordinates": [11.4148242, 48.1437879]}, "entities": {"urls": [{"display_url": "instagram.com/p/asXObwxKDP/"}]}, "id_str": "346903942392856577", "_id": {"$oid": "52c6d1c48ef20d397e4c1d34"}, "user": {"id_str": "167823195", "name": "Laura Ribeiro =D"}}, {"text": "#pol\u00edtica #protestorj #protestosp #portoalegre #macei\u00f3 #esp\u00edritoSanto #riodejaneiro #saopaulo\u2026 http://t.co/KPxnjWuzLp", "created_at": "Tue Jun 18 08:37:16 +0000 2013", "coordinates": {"coordinates": [-43.32337402, -22.84424582]}, "entities": {"urls": [{"display_url": "instagram.com/p/asZ_K4J3qd/"}]}, "id_str": "346909464223416320", "_id": {"$oid": "52c6d1c48ef20d397e4c209a"}, "user": {"id_str": "28655593", "name": "Toni   [CRF]"}}, {"text": "PRE-PA-RA #vempraruaSF #mudabrasil #changebrazil @ Cupertino, CA http://t.co/LLxkpnmPMM", "created_at": "Tue Jun 18 08:46:58 +0000 2013", "coordinates": {"coordinates": [-122.0434669, 37.3161901]}, "entities": {"urls": [{"display_url": "instagram.com/p/asbIYLANBt/"}]}, "id_str": "346911905882976256", "_id": {"$oid": "52c6d1c48ef20d397e4c226b"}, "user": {"id_str": "128974582", "name": "Paula Pimentel"}}, {"text": "Nao precisa de legenda. #changebrazil #vemprarua #ogiganteacordou @ Sloane Street http://t.co/V5lLiuObUS", "created_at": "Tue Jun 18 08:55:41 +0000 2013", "coordinates": {"coordinates": [-0.16003132, 51.50047487]}, "entities": {"urls": [{"display_url": "instagram.com/p/ascCgHB6uV/"}]}, "id_str": "346914098459598848", "_id": {"$oid": "52c6d1c48ef20d397e4c23ef"}, "user": {"id_str": "162741503", "name": "\u00e9 Andr\u00c9a, saco?"}}, {"text": "\u2728\ud83d\udc99\ud83d\udc9b\ud83d\udc9a\u2728 #proud #whitemonday #mudabrasil #vemprarua #ogiganteacordou #porumbrasilmaisjusto #obrasilenosso\u2026 http://t.co/06HpUc5SAj", "created_at": "Tue Jun 18 15:06:59 +0000 2013", "coordinates": {"coordinates": [-71.04231717, 42.43055767]}, "entities": {"urls": [{"display_url": "instagram.com/p/atGeucJv3L/"}]}, "id_str": "347007540632109057", "_id": {"$oid": "52c6d1c68ef20d397e4c33db"}, "user": {"id_str": "34861470", "name": "carola siqueira"}}]