[{"text": "#changebrazil Protest in #Hamburg! @ Hamburg Hauptbahnhof http://t.co/O3wdSjmI4e", "created_at": "Tue Jun 18 17:02:44 +0000 2013", "coordinates": {"coordinates": [10.00674784, 53.55264733]}, "entities": {"urls": [{"display_url": "instagram.com/p/atTvndSAPI/"}]}, "id_str": "347036671428157440", "_id": {"$oid": "52c6d0f18ef20d397e42b67f"}, "user": {"id_str": "37726498", "name": "Yasmin Lechte"}}, {"text": "#vemPRArua @ Avenida dos Aliados http://t.co/c0X4q1mnB8", "created_at": "Tue Jun 18 17:03:52 +0000 2013", "coordinates": {"coordinates": [-8.61140504, 41.14636204]}, "entities": {"urls": [{"display_url": "instagram.com/p/atT8JwJxdi/"}]}, "id_str": "347036956754079744", "_id": {"$oid": "52c6d0f18ef20d397e42b997"}, "user": {"id_str": "137543286", "name": "Filipe Aquino"}}, {"text": "#changebrazil #hamburg @ Hamburg Hauptbahnhof http://t.co/eT5TljOBCp", "created_at": "Tue Jun 18 17:09:05 +0000 2013", "coordinates": {"coordinates": [10.00674784, 53.55264733]}, "entities": {"urls": [{"display_url": "instagram.com/p/atUi63SAAd/"}]}, "id_str": "347038268644278273", "_id": {"$oid": "52c6d0f28ef20d397e42c734"}, "user": {"id_str": "37726498", "name": "Yasmin Lechte"}}, {"text": "#changebrazil COME\u00c7OU @ Houses of Parliament http://t.co/cyuLaG1Ahx", "created_at": "Tue Jun 18 17:13:17 +0000 2013", "coordinates": {"coordinates": [-0.12441158, 51.50003407]}, "entities": {"urls": [{"display_url": "instagram.com/p/atVDleozs-/"}]}, "id_str": "347039323666923520", "_id": {"$oid": "52c6d0f38ef20d397e42d0cc"}, "user": {"id_str": "21868244", "name": "Thais Mendes"}}, {"text": "Teach'em Young #changebrazil #london @ Houses of Parliament http://t.co/eypTbyfm3H", "created_at": "Tue Jun 18 21:12:31 +0000 2013", "coordinates": {"coordinates": [-0.12441158, 51.50003407]}, "entities": {"urls": [{"display_url": "instagram.com/p/atukFJIzjW/"}]}, "id_str": "347099529256001536", "_id": {"$oid": "52c6d0fa8ef20d397e43045c"}, "user": {"id_str": "21868244", "name": "Thais Mendes"}}, {"text": "Podemos estar longe, mas nao esquecemos das nossas origens! #changebrazil #vemprarua #ogiganteacordou\u2026 http://t.co/NFKnw84ABq", "created_at": "Tue Jun 18 21:16:47 +0000 2013", "coordinates": {"coordinates": [-0.1238966, 51.50064184]}, "entities": {"urls": [{"display_url": "instagram.com/p/atw2smB6iW/"}]}, "id_str": "347100604482592769", "_id": {"$oid": "52c6d0fa8ef20d397e430f4b"}, "user": {"id_str": "162741503", "name": "\u00e9 Andr\u00c9a, saco?"}}, {"text": "#Brazil: \"the football nation is also the corrupt nation\" #changebrazil #protestolondres @ Houses of\u2026 http://t.co/Vc8FA7nhKH", "created_at": "Tue Jun 18 21:19:29 +0000 2013", "coordinates": {"coordinates": [-0.12441158, 51.50003407]}, "entities": {"urls": [{"display_url": "instagram.com/p/atxK9qBF42/"}]}, "id_str": "347101284198916098", "_id": {"$oid": "52c6d0fb8ef20d397e431732"}, "user": {"id_str": "47921994", "name": "Shaun"}}, {"text": "Criancas protesto em Londres #changebrazil @ Houses of Parliament http://t.co/OdB4IR9wc5", "created_at": "Tue Jun 18 21:20:58 +0000 2013", "coordinates": {"coordinates": [-0.12441158, 51.50003407]}, "entities": {"urls": [{"display_url": "instagram.com/p/atxYtOhF5S/"}]}, "id_str": "347101656460165121", "_id": {"$oid": "52c6d0fb8ef20d397e431b0c"}, "user": {"id_str": "47921994", "name": "Shaun"}}, {"text": "The absurdity of politicians' salaries in #brazil #changebrazil #protestolondres @ Houses of Parliament http://t.co/pivFqxEuu2", "created_at": "Tue Jun 18 21:22:36 +0000 2013", "coordinates": {"coordinates": [-0.12441158, 51.50003407]}, "entities": {"urls": [{"display_url": "instagram.com/p/atxh86BF5k/"}]}, "id_str": "347102068726710272", "_id": {"$oid": "52c6d0fb8ef20d397e431f4c"}, "user": {"id_str": "47921994", "name": "Shaun"}}, {"text": "N\u00f3s vamos voltar e apoiamos o progresso! #vemprarua #for\u00e7aBrasil #muzy #coimbra #portugal @ Coimbra http://t.co/PqelBPwvmP", "created_at": "Tue Jun 18 21:22:49 +0000 2013", "coordinates": {"coordinates": [-8.4095192, 40.19361355]}, "entities": {"urls": [{"display_url": "instagram.com/p/atxcO3NRHm/"}]}, "id_str": "347102121029664768", "_id": {"$oid": "52c6d0fb8ef20d397e431fd5"}, "user": {"id_str": "115804508", "name": "Livia Mega"}}, {"text": "Protesto em Londres #changebrazil @ Houses of Parliament http://t.co/QcHcJdlUIY", "created_at": "Tue Jun 18 21:23:29 +0000 2013", "coordinates": {"coordinates": [-0.12441158, 51.50003407]}, "entities": {"urls": [{"display_url": "instagram.com/p/atxsS0hF54/"}]}, "id_str": "347102288680218625", "_id": {"$oid": "52c6d0fb8ef20d397e432168"}, "user": {"id_str": "47921994", "name": "Shaun"}}, {"text": "#vemprarua #changebrazil  #ogiganteacordou #vdevinagre #vinagre #london @ Old Palace Yard http://t.co/l1sy9d5pyM", "created_at": "Tue Jun 18 21:24:05 +0000 2013", "coordinates": {"coordinates": [-0.12594808, 51.49901612]}, "entities": {"urls": [{"display_url": "instagram.com/p/atxp82h6jm/"}]}, "id_str": "347102443131269120", "_id": {"$oid": "52c6d0fb8ef20d397e4322da"}, "user": {"id_str": "162741503", "name": "\u00e9 Andr\u00c9a, saco?"}}, {"text": "#vemprarua #changebrazil #ogiganteacordou #london @ Old Palace Yard http://t.co/iOWxN8AyD8", "created_at": "Tue Jun 18 21:26:21 +0000 2013", "coordinates": {"coordinates": [-0.12594808, 51.49901612]}, "entities": {"urls": [{"display_url": "instagram.com/p/atx-AXB6j8/"}]}, "id_str": "347103012860354560", "_id": {"$oid": "52c6d0fc8ef20d397e43287d"}, "user": {"id_str": "162741503", "name": "\u00e9 Andr\u00c9a, saco?"}}, {"text": "#changebrazil #vemprarua #ogiganteacordou #london #acordabrasil @ Old Palace Yard http://t.co/3mXtJlJgih", "created_at": "Tue Jun 18 21:28:17 +0000 2013", "coordinates": {"coordinates": [-0.12594808, 51.49901612]}, "entities": {"urls": [{"display_url": "instagram.com/p/atyMEjB6kR/"}]}, "id_str": "347103498254565376", "_id": {"$oid": "52c6d0fc8ef20d397e432d7d"}, "user": {"id_str": "162741503", "name": "\u00e9 Andr\u00c9a, saco?"}}, {"text": "Morta de cansada, mas valeu a pena. #changebrazil #vemprarua #ogiganteacordou #london @ Sloane Street http://t.co/C0A65MI6Rq", "created_at": "Tue Jun 18 21:31:30 +0000 2013", "coordinates": {"coordinates": [-0.16003132, 51.50047487]}, "entities": {"urls": [{"display_url": "instagram.com/p/atydEyB6kn/"}]}, "id_str": "347104305653895168", "_id": {"$oid": "52c6d0fc8ef20d397e433551"}, "user": {"id_str": "162741503", "name": "\u00e9 Andr\u00c9a, saco?"}}, {"text": "Vibe sem igual! #maisdedoismil #changebrazil #vemprarua #ogiganteacordou @ Old Palace Yard http://t.co/rlstDxaBvY", "created_at": "Tue Jun 18 21:33:38 +0000 2013", "coordinates": {"coordinates": [-0.12594808, 51.49901612]}, "entities": {"urls": [{"display_url": "instagram.com/p/atyZULxlc5/"}]}, "id_str": "347104845183991809", "_id": {"$oid": "52c6d0fd8ef20d397e433a06"}, "user": {"id_str": "42281055", "name": "Ricieri Crepaldi"}}, {"text": "Com minha mascara e minha arma na m\u00e3o. #changebrazil #vemprarua #ogiganteacordou #london @ Sloane Street http://t.co/FCyWthUL0g", "created_at": "Tue Jun 18 21:34:36 +0000 2013", "coordinates": {"coordinates": [-0.16003132, 51.50047487]}, "entities": {"urls": [{"display_url": "instagram.com/p/aty1cCB6lO/"}]}, "id_str": "347105086968852480", "_id": {"$oid": "52c6d0fd8ef20d397e433c64"}, "user": {"id_str": "162741503", "name": "\u00e9 Andr\u00c9a, saco?"}}, {"text": "#BrasilVaiParar #LisboaVaiApoiar #ChangeBrazil #OGiganteAcordou #DemocraciaSemFronteiras\u2026 http://t.co/VGdOwC3eHI", "created_at": "Tue Jun 18 21:36:19 +0000 2013", "coordinates": {"coordinates": [-9.14352179, 38.71057849]}, "entities": {"urls": [{"display_url": "instagram.com/p/atxuW7C_4c/"}]}, "id_str": "347105518755651585", "_id": {"$oid": "52c6d0fd8ef20d397e434127"}, "user": {"id_str": "377472502", "name": "Leticia Matos"}}, {"text": "Manifesta\u00e7\u00e3o hoje em Lisboa ... At\u00e9 o Fernando Pessoa entrou na causa #ChangeBrazil #BrasilAcordou\u2026 http://t.co/KzKs2DkrF1", "created_at": "Tue Jun 18 21:56:47 +0000 2013", "coordinates": {"coordinates": [-9.14222628, 38.71049477]}, "entities": {"urls": [{"display_url": "instagram.com/p/at1GpyvaHg/"}]}, "id_str": "347110671579754496", "_id": {"$oid": "52c6d1058ef20d397e4380c3"}, "user": {"id_str": "199398896", "name": "Yago Pereira"}}, {"text": "#changebrazil #copenhagen @ R\u00e5dhuspladsen http://t.co/WL6Qn2ir5z", "created_at": "Tue Jun 18 13:55:20 +0000 2013", "coordinates": {"coordinates": [12.56878853, 55.67606597]}, "entities": {"urls": [{"display_url": "instagram.com/p/as-YSrB6eB/"}]}, "id_str": "346989509201756161", "_id": {"$oid": "52c6d1518ef20d397e466cc9"}, "user": {"id_str": "9054682", "name": "brunostomp"}}, {"text": "#ogiganteacordou #revolucaobrasil #brazilwokeup @ House of Commons http://t.co/SEd2XXxrWR", "created_at": "Tue Jun 18 19:53:38 +0000 2013", "coordinates": {"coordinates": [-0.12561321, 51.50006078]}, "entities": {"urls": [{"display_url": "instagram.com/p/atme3QG2Kk/"}]}, "id_str": "347079680618295299", "_id": {"$oid": "52c6d1c38ef20d397e4c1034"}, "user": {"id_str": "265429403", "name": "Caroline Pey"}}, {"text": "#ChangeBrazil @ Westminster http://t.co/P1vPYxxLMg", "created_at": "Tue Jun 18 19:58:00 +0000 2013", "coordinates": {"coordinates": [-0.12507641, 51.50108101]}, "entities": {"urls": [{"display_url": "instagram.com/p/atn34qwPB4/"}]}, "id_str": "347080776065634305", "_id": {"$oid": "52c6d1c38ef20d397e4c16ae"}, "user": {"id_str": "24624320", "name": "Bruna "}}]