[{"text": "Estou a\u00ed em cora\u00e7\u00e3o.  #oGIGANTEacordou #vemprarua #brasil #brazil #p\u00e1triaamada @ Etxaide, 4 http://t.co/uwqiSvOx4B", "created_at": "Mon Jun 17 23:13:25 +0000 2013", "coordinates": {"coordinates": [-1.96830165, 43.29479599]}, "entities": {"urls": [{"display_url": "instagram.com/p/arY0m7u4GN/"}]}, "id_str": "346767567618207744", "_id": {"$oid": "52c6d15c8ef20d397e4705e1"}, "user": {"id_str": "84650030", "name": "Carolina Assis"}}, {"text": "Transmiss\u00e3o ao vivo da principal emissora de tv portuguesa dos protestos do Brasil. #Brasilacordando\u2026 http://t.co/9Du27O85IP", "created_at": "Mon Jun 17 23:16:23 +0000 2013", "coordinates": {"coordinates": [-8.4022302, 40.2071329]}, "entities": {"urls": [{"display_url": "instagram.com/p/arZqDuDCOe/"}]}, "id_str": "346768313642278912", "_id": {"$oid": "52c6d15d8ef20d397e47254d"}, "user": {"id_str": "60916551", "name": "Cyntia Mirelle"}}, {"text": "#vemprarua #vaiprarua #ogiganteAcordou Como queria estar a\u00ed para ir para a rua! Vai para rua povo.\u2026 http://t.co/HFe9Vtp8j1", "created_at": "Mon Jun 17 23:18:59 +0000 2013", "coordinates": {"coordinates": [1.33218986, 52.91858675]}, "entities": {"urls": [{"display_url": "instagram.com/p/arZyY0Ntch/"}]}, "id_str": "346768969862115328", "_id": {"$oid": "52c6d15f8ef20d397e474212"}, "user": {"id_str": "41901245", "name": "Adriana Ferrer \u2655"}}, {"text": "Exemplo! #vemprarua #mudabrasil #changebrazil #ogiganteacordou #obrasilacordou #brasilmostratuacara\u2026 http://t.co/qajew7HpY8", "created_at": "Mon Jun 17 23:55:20 +0000 2013", "coordinates": {"coordinates": [-0.04774366, 51.5311984]}, "entities": {"urls": [{"display_url": "instagram.com/p/areE8fqD8H/"}]}, "id_str": "346778116473094144", "_id": {"$oid": "52c6d17b8ef20d397e48ff5d"}, "user": {"id_str": "28518710", "name": "Lucy Martinez"}}, {"text": "*OMG* #changebrazil #vemprarua #ogiganteacordou @ Sloane Street http://t.co/GAP8CuB2Gs", "created_at": "Tue Jun 18 08:45:29 +0000 2013", "coordinates": {"coordinates": [-0.16003132, 51.50047487]}, "entities": {"urls": [{"display_url": "instagram.com/p/asa47wh6tv/"}]}, "id_str": "346911533995008000", "_id": {"$oid": "52c6d1c48ef20d397e4c221d"}, "user": {"id_str": "162741503", "name": "\u00e9 Andr\u00c9a, saco?"}}]